address_key,provider,status,matched_query,lon,lat,score_or_type,raw_name,message
충청남도 천안시 동남구 각원사길 187-22 (안서동),gimi9,ok,충청남도 천안시 동남구 각원사길 187-22 (안서동),127.19122724205164,36.83408865606695,도로명 주소,신안동,
충청남도 천안시 동남구 각원사길 69,gimi9,ok,충청남도 천안시 동남구 각원사길 69,127.18040811005984,36.830679574545776,도로명 주소,신안동,
충청남도 천안시 동남구 개목2길 1 (봉명동),gimi9,ok,충청남도 천안시 동남구 개목2길 1 (봉명동),127.13139903344356,36.81503254990809,도로명 주소,봉명동,
충청남도 천안시 동남구 고재15길 15,gimi9,ok,충청남도 천안시 동남구 고재15길 15,127.1608340493683,36.8014178364324,도로명 주소,원성2동,
"충청남도 천안시 동남구 고재20길 7, 201호 (원성동)",gimi9,ok,"충청남도 천안시 동남구 고재20길 7, 201호 (원성동)",127.15984871944065,36.80369573772505,도로명 주소,원성2동,
충청남도 천안시 동남구 고재4길 23,gimi9,ok,충청남도 천안시 동남구 고재4길 23,127.1616100566406,36.80084310685122,도로명 주소,원성2동,
충청남도 천안시 동남구 고재4길 55(원성동),gimi9,ok,충청남도 천안시 동남구 고재4길 55(원성동),127.16158611512192,36.80373675281493,도로명 주소,원성2동,
"충청남도 천안시 동남구 공설시장1길 2, 3층 (대흥동)",gimi9,ok,"충청남도 천안시 동남구 공설시장1길 2, 3층 (대흥동)",127.14889368198006,36.80919891218586,도로명 주소,중앙동,
"충청남도 천안시 동남구 공설시장1길 31-1, 1층 (대흥동)",gimi9,ok,"충청남도 천안시 동남구 공설시장1길 31-1, 1층 (대흥동)",127.14942041608111,36.81169752970096,도로명 주소,중앙동,
충청남도 천안시 동남구 공설시장1길 9 (대흥동),gimi9,ok,충청남도 천안시 동남구 공설시장1길 9 (대흥동),127.1489016822115,36.80990208015901,도로명 주소,중앙동,
"충청남도 천안시 동남구 공설시장2길 3, 3층(대흥동)",gimi9,ok,"충청남도 천안시 동남구 공설시장2길 3, 3층(대흥동)",127.14933172602524,36.80901991119154,도로명 주소,중앙동,
충청남도 천안시 동남구 공설시장2길 8-9 (문화동),gimi9,ok,충청남도 천안시 동남구 공설시장2길 8-9 (문화동),127.15077722213726,36.80917741409228,도로명 주소,문성동,
충청남도 천안시 동남구 공설시장2길 9-2 (대흥동),gimi9,ok,충청남도 천안시 동남구 공설시장2길 9-2 (대흥동),127.14956460546296,36.80957950729185,도로명 주소,중앙동,
충청남도 천안시 동남구 공설시장3길 10 (대흥동),gimi9,ok,충청남도 천안시 동남구 공설시장3길 10 (대흥동),127.1491724717251,36.80952426311582,도로명 주소,중앙동,
충청남도 천안시 동남구 광덕면 개천골길 8,gimi9,ok,충청남도 천안시 동남구 광덕면 개천골길 8,127.07052894097684,36.69869156812948,도로명 주소,광덕면,
충청남도 천안시 동남구 광덕면 광덕로 534,gimi9,ok,충청남도 천안시 동남구 광덕면 광덕로 534,127.15703884939514,36.68702752232885,도로명 주소,광덕면,
충청남도 천안시 동남구 광덕면 광덕리 650-10,gimi9,ok,충청남도 천안시 동남구 광덕면 광덕리 650-10,127.0449438488362,36.67291329082848,도로명 주소,광덕면,
충청남도 천안시 동남구 광덕면 대평리 360,gimi9,ok,충청남도 천안시 동남구 광덕면 대평리 360,127.14248556612804,36.675391601447096,지번 주소,광덕면,
충청남도 천안시 동남구 광덕면 대평리 367,gimi9,ok,충청남도 천안시 동남구 광덕면 대평리 367,127.13578212157796,36.67058439021299,지번 주소,광덕면,
충청남도 천안시 동남구 광덕면 밤나무골길38(천안추모공원),gimi9,ok,충청남도 천안시 동남구 광덕면 밤나무골길38(천안추모공원),127.1165713003129,36.66530447618725,도로명 주소,광덕면,
충청남도 천안시 동남구 광덕면 보산원2길 33,gimi9,ok,충청남도 천안시 동남구 광덕면 보산원2길 33,127.07615224775256,36.68582051825301,도로명 주소,광덕면,
충청남도 천안시 동남구 광덕면 신흥리 368-3,gimi9,ok,충청남도 천안시 동남구 광덕면 신흥리 368-3,127.10204901551484,36.69525826834844,도로명 주소,광덕면,
충청남도 천안시 동남구 광덕면 신흥리3길 33,gimi9,ok,충청남도 천안시 동남구 광덕면 신흥리3길 33,127.11118921012832,36.69859691003858,도로명 주소,광덕면,
충청남도 천안시 동남구 광덕면 신흥리3길 36,gimi9,ok,충청남도 천안시 동남구 광덕면 신흥리3길 36,127.10934190459184,36.69862692228418,도로명 주소,광덕면,
충청남도 천안시 동남구 광덕면 원덕리 440-1,gimi9,ok,충청남도 천안시 동남구 광덕면 원덕리 440-1,127.13472310392125,36.65313733353858,도로명 주소,광덕면,
충청남도 천안시 동남구 광덕면 지장리 393,gimi9,ok,충청남도 천안시 동남구 광덕면 지장리 393,127.07902779346566,36.64903204125712,지번 주소,광덕면,
충청남도 천안시 동남구 광덕면 차령로 4267,gimi9,ok,충청남도 천안시 동남구 광덕면 차령로 4267,127.1351286843811,36.666769095650906,도로명 주소,광덕면,
"충청남도 천안시 동남구 광풍로 1822, 6층 (청당동, 아이지타워)",gimi9,ok,"충청남도 천안시 동남구 광풍로 1822, 6층 (청당동, 아이지타워)",127.14624291831278,36.78102915786992,도로명 주소,청룡동,
충청남도 천안시 동남구 광풍로 1828 (청당동),gimi9,ok,충청남도 천안시 동남구 광풍로 1828 (청당동),127.14572566711512,36.78140623651316,도로명 주소,청룡동,
충청남도 천안시 동남구 구룡동 564-4,gimi9,not_found,충청남도 천안시 동남구 구룡동 564-4,127.1398483436581,36.77526759576085,인근 지번 주소,청룡동,인근 지번 주소: 564-3
충청남도 천안시 동남구 구룡동 599-1,gimi9,ok,충청남도 천안시 동남구 구룡동 599-1,127.13815316422397,36.76638294587637,지번 주소,청룡동,
"충청남도 천안시 동남구 구성10길 17, 1층 (구성동)",gimi9,ok,"충청남도 천안시 동남구 구성10길 17, 1층 (구성동)",127.16368478831612,36.79550327910894,도로명 주소,청룡동,
충청남도 천안시 동남구 구성1길 10(구성동),gimi9,ok,충청남도 천안시 동남구 구성1길 10(구성동),127.16030031734176,36.79535844071245,도로명 주소,청룡동,
충청남도 천안시 동남구 구성5길 31(구성동),gimi9,ok,충청남도 천안시 동남구 구성5길 31(구성동),127.162724172396,36.79729448330002,도로명 주소,청룡동,
충청남도 천안시 동남구 구성동 435-1,gimi9,ok,충청남도 천안시 동남구 구성동 435-1,127.1622860678244,36.797509592800346,지번 주소,청룡동,
충청남도 천안시 동남구 다가13길 7 (다가동),gimi9,ok,충청남도 천안시 동남구 다가13길 7 (다가동),127.14197642919828,36.80199359277047,도로명 주소,일봉동,
충청남도 천안시 동남구 다가2길 3,gimi9,ok,충청남도 천안시 동남구 다가2길 3,127.13857105153868,36.79908957996547,도로명 주소,일봉동,
충청남도 천안시 동남구 다가2길 39 (다가동),gimi9,ok,충청남도 천안시 동남구 다가2길 39 (다가동),127.14011569411848,36.801969947520696,도로명 주소,일봉동,
충청남도 천안시 동남구 다가4길 4-3 (다가동),gimi9,ok,충청남도 천안시 동남구 다가4길 4-3 (다가동),127.14169929508309,36.79891875130277,도로명 주소,일봉동,
충청남도 천안시 동남구 다가8길 26 (다가동),gimi9,ok,충청남도 천안시 동남구 다가8길 26 (다가동),127.13976445507636,36.80037328558095,도로명 주소,일봉동,
충청남도 천안시 동남구 다가동 377-1,gimi9,ok,충청남도 천안시 동남구 다가동 377-1,127.13588963267738,36.79958622362963,지번 주소,일봉동,
충청남도 천안시 동남구 다가동 391-1,gimi9,ok,충청남도 천안시 동남구 다가동 391-1,127.1412688850614,36.79987301045929,지번 주소,일봉동,
충청남도 천안시 동남구 다가동 409-9,gimi9,ok,충청남도 천안시 동남구 다가동 409-9,127.13820623151597,36.79800670859724,지번 주소,일봉동,
충청남도 천안시 동남구 다가동 462-45,gimi9,ok,충청남도 천안시 동남구 다가동 462-45,127.1507238645691,36.79624118863903,지번 주소,일봉동,
충청남도 천안시 동남구 다가동 565번지,gimi9,ok,충청남도 천안시 동남구 다가동 565번지,127.1443588141362,36.803145604979385,지번 주소,일봉동,
"충청남도 천안시 동남구 다가말2길 86-1, 지하1,지상1,2층 (다가동)",gimi9,ok,"충청남도 천안시 동남구 다가말2길 86-1, 지하1,지상1,2층 (다가동)",127.14140630904208,36.79684449035593,도로명 주소,일봉동,
"충청남도 천안시 동남구 다가말4길 44, 102호 (다가동)",gimi9,ok,"충청남도 천안시 동남구 다가말4길 44, 102호 (다가동)",127.14004314388184,36.79830976667514,도로명 주소,일봉동,
충청남도 천안시 동남구 단대로 119-11(신부동),gimi9,ok,충청남도 천안시 동남구 단대로 119-11(신부동),127.16401944947346,36.831788267898645,도로명 주소,신안동,
충청남도 천안시 동남구 단대로 21-7,gimi9,ok,충청남도 천안시 동남구 단대로 21-7,127.15413083815292,36.82627901050229,도로명 주소,신안동,
충청남도 천안시 동남구 단대로 69,gimi9,ok,충청남도 천안시 동남구 단대로 69,127.15630945580604,36.83057629854834,도로명 주소,신안동,
충청남도 천안시 동남구 단대로71,gimi9,ok,충청남도 천안시 동남구 단대로71,127.1600396314213,36.83150651593685,도로명 주소,신안동,
충청남도 천안시 동남구 대흥로 127 (사직동),gimi9,ok,충청남도 천안시 동남구 대흥로 127 (사직동),127.1485184355037,36.80054371268415,도로명 주소,중앙동,
"충청남도 천안시 동남구 대흥로 127 (사직동,1층)",gimi9,ok,"충청남도 천안시 동남구 대흥로 127 (사직동,1층)",127.1485184355037,36.80054371268415,도로명 주소,중앙동,
충청남도 천안시 동남구 대흥로 132-2(사직동),gimi9,ok,충청남도 천안시 동남구 대흥로 132-2(사직동),127.14853933055596,36.800877317758,도로명 주소,중앙동,
충청남도 천안시 동남구 대흥로 215 백자빌딩 102호(대흥동),gimi9,ok,충청남도 천안시 동남구 대흥로 215 백자빌딩 102호(대흥동),127.14715331612187,36.80733673874035,도로명 주소,중앙동,
"충청남도 천안시 동남구 대흥로 251 (대흥동,화성빌딩 1층)",gimi9,ok,"충청남도 천안시 동남구 대흥로 251 (대흥동,화성빌딩 1층)",127.14826018563804,36.81044106475191,도로명 주소,중앙동,
"충청남도 천안시 동남구 대흥로 251, 2층 (대흥동)",gimi9,ok,"충청남도 천안시 동남구 대흥로 251, 2층 (대흥동)",127.14826018563804,36.81044106475191,도로명 주소,중앙동,
충청남도 천안시 동남구 대흥로 271(대흥동),gimi9,ok,충청남도 천안시 동남구 대흥로 271(대흥동),127.1487670790582,36.81237170193803,도로명 주소,중앙동,
충청남도 천안시 동남구 대흥로 285 (성황동),gimi9,ok,충청남도 천안시 동남구 대흥로 285 (성황동),127.14916550203668,36.81350872594467,도로명 주소,문성동,
"충청남도 천안시 동남구 대흥로 292, 2층 (성황동)",gimi9,ok,"충청남도 천안시 동남구 대흥로 292, 2층 (성황동)",127.1497914129906,36.81393426010694,도로명 주소,문성동,
충청남도 천안시 동남구 대흥로 336-4 (신부동),gimi9,ok,충청남도 천안시 동남구 대흥로 336-4 (신부동),127.1518380821282,36.8175281055181,도로명 주소,신안동,
충청남도 천안시 동남구 대흥로 340 (신부동),gimi9,ok,충청남도 천안시 동남구 대흥로 340 (신부동),127.15175841357149,36.81778929736772,도로명 주소,신안동,
"충청남도 천안시 동남구 대흥로 90, 201호 (영성동, 영성펜타폴리스25)",gimi9,ok,"충청남도 천안시 동남구 대흥로 90, 201호 (영성동, 영성펜타폴리스25)",127.15229002193443,36.79940993358554,도로명 주소,중앙동,
충청남도 천안시 동남구 동면 광덕리 산15,gimi9,ok,충청남도 천안시 동남구 동면 광덕리 산15,127.34844364501562,36.789355528424,지번 주소,동면,
충청남도 천안시 동남구 동면 구도리 113-1,gimi9,ok,충청남도 천안시 동남구 동면 구도리 113-1,127.33658410641848,36.758311011884615,도로명 주소,동면,
충청남도 천안시 동남구 동면 구도리 165-2,gimi9,ok,충청남도 천안시 동남구 동면 구도리 165-2,127.3381140578308,36.76599369675548,도로명 주소,동면,
충청남도 천안시 동남구 동면 동산1길 59,gimi9,ok,충청남도 천안시 동남구 동면 동산1길 59,127.3478826515929,36.77831174431466,도로명 주소,동면,
충청남도 천안시 동남구 동면 동산1길 63,gimi9,ok,충청남도 천안시 동남구 동면 동산1길 63,127.34886825618462,36.77860147275858,도로명 주소,동면,
충청남도 천안시 동남구 동면 동산리 174,gimi9,ok,충청남도 천안시 동남구 동면 동산리 174,127.3629229356726,36.79654882631543,도로명 주소,동면,
충청남도 천안시 동남구 동면 송연리 259-4,gimi9,ok,충청남도 천안시 동남구 동면 송연리 259-4,127.353000229743,36.77443281589792,지번 주소,동면,
충청남도 천안시 동남구 동면 송연리 528-3,gimi9,ok,충청남도 천안시 동남구 동면 송연리 528-3,127.3461720683948,36.76508488062103,도로명 주소,동면,
충청남도 천안시 동남구 동면 장송리 292,gimi9,ok,충청남도 천안시 동남구 동면 장송리 292,127.38139183220744,36.77721401270597,지번 주소,동면,
충청남도 천안시 동남구 동면 죽계리 340-7,gimi9,ok,충청남도 천안시 동남구 동면 죽계리 340-7,127.37816877226425,36.79569099044824,도로명 주소,동면,
충청남도 천안시 동남구 동면 죽계리 477,gimi9,ok,충청남도 천안시 동남구 동면 죽계리 477,127.38472311273536,36.79766273533398,도로명 주소,동면,
충청남도 천안시 동남구 동면 죽계리 94-3,gimi9,ok,충청남도 천안시 동남구 동면 죽계리 94-3,127.38988074389331,36.79673009000668,도로명 주소,동면,
충청남도 천안시 동남구 만남로 18 (신부동),gimi9,ok,충청남도 천안시 동남구 만남로 18 (신부동),127.15418944649215,36.81823811012893,도로명 주소,신안동,
"충청남도 천안시 동남구 만남로 26, 3층 301호 (신부동)",gimi9,ok,"충청남도 천안시 동남구 만남로 26, 3층 301호 (신부동)",127.15498413282096,36.81854691689827,도로명 주소,신안동,
"충청남도 천안시 동남구 만남로 36 (신부동, 광동빌딩)",gimi9,ok,"충청남도 천안시 동남구 만남로 36 (신부동, 광동빌딩)",127.15611620077888,36.818631328021205,도로명 주소,신안동,
"충청남도 천안시 동남구 만남로 40, 5층 (신부동)",gimi9,ok,"충청남도 천안시 동남구 만남로 40, 5층 (신부동)",127.15662087060883,36.81860574241477,도로명 주소,신안동,
충청남도 천안시 동남구 만남로 43 (신부동),gimi9,ok,충청남도 천안시 동남구 만남로 43 (신부동),127.15630862874558,36.820732299629256,도로명 주소,신안동,
"충청남도 천안시 동남구 만남로 6, CARAT21 6층 6001~6004호 (신부동)",gimi9,ok,"충청남도 천안시 동남구 만남로 6, CARAT21 6층 6001~6004호 (신부동)",127.15275331531602,36.818450276902894,도로명 주소,신안동,
"충청남도 천안시 동남구 만남로 64, 2층 202,203호 (신부동)",gimi9,ok,"충청남도 천안시 동남구 만남로 64, 2층 202,203호 (신부동)",127.1593206533298,36.81914537268086,도로명 주소,신안동,
"충청남도 천안시 동남구 만남로 64, 3층 301호 (신부동)",gimi9,ok,"충청남도 천안시 동남구 만남로 64, 3층 301호 (신부동)",127.1593206533298,36.81914537268086,도로명 주소,신안동,
"충청남도 천안시 동남구 만남로 90, 2~5층 (신부동)",gimi9,ok,"충청남도 천안시 동남구 만남로 90, 2~5층 (신부동)",127.16162450984228,36.82048612032711,도로명 주소,신안동,
"충청남도 천안시 동남구 먹거리2길 6-1, 2층(신부동)",gimi9,ok,"충청남도 천안시 동남구 먹거리2길 6-1, 2층(신부동)",127.1540237799496,36.817678719331646,도로명 주소,신안동,
"충청남도 천안시 동남구 먹거리8길 44, 3층 (신부동)",gimi9,ok,"충청남도 천안시 동남구 먹거리8길 44, 3층 (신부동)",127.15795060886872,36.81710412637443,도로명 주소,신안동,
충청남도 천안시 동남구 명동길 47 (대흥동),gimi9,ok,충청남도 천안시 동남구 명동길 47 (대흥동),127.14837369897609,36.8076829108651,도로명 주소,중앙동,
"충청남도 천안시 동남구 명동길 47 (대흥동,오렌지씨네스타 5층)",gimi9,ok,"충청남도 천안시 동남구 명동길 47 (대흥동,오렌지씨네스타 5층)",127.14837369897609,36.8076829108651,도로명 주소,중앙동,
충청남도 천안시 동남구 명동길 50 (문화동),gimi9,ok,충청남도 천안시 동남구 명동길 50 (문화동),127.14917043263236,36.80751398505696,도로명 주소,문성동,
충청남도 천안시 동남구 목천읍 교천2길 7,gimi9,ok,충청남도 천안시 동남구 목천읍 교천2길 7,127.19769136720276,36.781612749829314,도로명 주소,목천읍,
충청남도 천안시 동남구 목천읍 교천리 18,gimi9,ok,충청남도 천안시 동남구 목천읍 교천리 18,127.1968191927932,36.78680300997556,도로명 주소,목천읍,
충청남도 천안시 동남구 목천읍 교천리 240-3,gimi9,ok,충청남도 천안시 동남구 목천읍 교천리 240-3,127.19666509335956,36.7860904543579,도로명 주소,목천읍,
충청남도 천안시 동남구 목천읍 교촌리 123,gimi9,ok,충청남도 천안시 동남구 목천읍 교촌리 123,127.22972221766466,36.80037734943826,지번 주소,목천읍,
충청남도 천안시 동남구 목천읍 남부대로 835,gimi9,ok,충청남도 천안시 동남구 목천읍 남부대로 835,127.21014436119565,36.78106680200064,도로명 주소,목천읍,
충청남도 천안시 동남구 목천읍 남화리 61-1일원,gimi9,ok,충청남도 천안시 동남구 목천읍 남화리 61-1일원,127.2337647446952,36.775668093131166,지번 주소,목천읍,
충청남도 천안시 동남구 목천읍 도장1길 73,gimi9,ok,충청남도 천안시 동남구 목천읍 도장1길 73,127.17988098475531,36.747174892522,도로명 주소,목천읍,
충청남도 천안시 동남구 목천읍 도장리 349-3,gimi9,ok,충청남도 천안시 동남구 목천읍 도장리 349-3,127.17965552440172,36.74751684719714,도로명 주소,목천읍,
충청남도 천안시 동남구 목천읍 동리 115-6,gimi9,ok,충청남도 천안시 동남구 목천읍 동리 115-6,127.2391810270257,36.78779589476972,도로명 주소,목천읍,
충청남도 천안시 동남구 목천읍 동평1길 49,gimi9,ok,충청남도 천안시 동남구 목천읍 동평1길 49,127.23444574997758,36.77316351607276,도로명 주소,목천읍,
충청남도 천안시 동남구 목천읍 동평1길 65,gimi9,ok,충청남도 천안시 동남구 목천읍 동평1길 65,127.23416196690602,36.77421760759254,도로명 주소,목천읍,
충청남도 천안시 동남구 목천읍 동평리 230,gimi9,ok,충청남도 천안시 동남구 목천읍 동평리 230,127.23725406348667,36.77443181595868,지번 주소,목천읍,
충청남도 천안시 동남구 목천읍 동평리 45-2 일원,gimi9,ok,충청남도 천안시 동남구 목천읍 동평리 45-2 일원,127.23421933662244,36.77707540936129,지번 주소,목천읍,
충청남도 천안시 동남구 목천읍 목천안터1길 15,gimi9,ok,충청남도 천안시 동남구 목천읍 목천안터1길 15,127.20702639603724,36.77582160407097,도로명 주소,목천읍,
충청남도 천안시 동남구 목천읍 목천안터1길 55,gimi9,ok,충청남도 천안시 동남구 목천읍 목천안터1길 55,127.20752618047608,36.77700376426327,도로명 주소,목천읍,
"충청남도 천안시 동남구 목천읍 목천안터2길 28, 1층",gimi9,ok,"충청남도 천안시 동남구 목천읍 목천안터2길 28, 1층",127.21161603572662,36.77712192569619,도로명 주소,목천읍,
충청남도 천안시 동남구 목천읍 삼방로 145,gimi9,ok,충청남도 천안시 동남구 목천읍 삼방로 145,127.23188281881228,36.78190206532388,도로명 주소,목천읍,
충청남도 천안시 동남구 목천읍 삼방로 502-14,gimi9,ok,충청남도 천안시 동남구 목천읍 삼방로 502-14,127.22988346386724,36.808725326523465,도로명 주소,목천읍,
충청남도 천안시 동남구 목천읍 삼방로 731,gimi9,ok,충청남도 천안시 동남구 목천읍 삼방로 731,127.22562662241226,36.82664577562768,도로명 주소,목천읍,
충청남도 천안시 동남구 목천읍 삼방로 733,gimi9,ok,충청남도 천안시 동남구 목천읍 삼방로 733,127.2260217926815,36.82588945499449,도로명 주소,목천읍,
충청남도 천안시 동남구 목천읍 삼성5길 22-14,gimi9,ok,충청남도 천안시 동남구 목천읍 삼성5길 22-14,127.17538156891108,36.75957603275402,도로명 주소,목천읍,
충청남도 천안시 동남구 목천읍 삼성5길 54,gimi9,ok,충청남도 천안시 동남구 목천읍 삼성5길 54,127.17803373787036,36.760322448727976,도로명 주소,목천읍,
충청남도 천안시 동남구 목천읍 삼성리 115,gimi9,ok,충청남도 천안시 동남구 목천읍 삼성리 115,127.16905989099844,36.75761143106576,도로명 주소,목천읍,
충청남도 천안시 동남구 목천읍 서리1길 41-7,gimi9,ok,충청남도 천안시 동남구 목천읍 서리1길 41-7,127.23496605992057,36.78477565925931,도로명 주소,목천읍,
충청남도 천안시 동남구 목천읍 서리2길 31,gimi9,ok,충청남도 천안시 동남구 목천읍 서리2길 31,127.23566165724638,36.78782418486468,도로명 주소,목천읍,
충청남도 천안시 동남구 목천읍 신계1길 23,gimi9,ok,충청남도 천안시 동남구 목천읍 신계1길 23,127.19605796175247,36.76954687256533,도로명 주소,목천읍,
충청남도 천안시 동남구 목천읍 신계1길 25,gimi9,ok,충청남도 천안시 동남구 목천읍 신계1길 25,127.19582162212932,36.76980769611751,도로명 주소,목천읍,
"충청남도 천안시 동남구 목천읍 신계1길 41, 107호 (동우아파트 상가)",gimi9,ok,"충청남도 천안시 동남구 목천읍 신계1길 41, 107호 (동우아파트 상가)",127.19513061403693,36.77169902319604,도로명 주소,목천읍,
충청남도 천안시 동남구 목천읍 신계5길 27,gimi9,ok,충청남도 천안시 동남구 목천읍 신계5길 27,127.21609948232134,36.77383331496849,도로명 주소,목천읍,
충청남도 천안시 동남구 목천읍 운전3길 20,gimi9,ok,충청남도 천안시 동남구 목천읍 운전3길 20,127.23836571939285,36.76716837629616,도로명 주소,목천읍,
충청남도 천안시 동남구 목천읍 운전4길 6,gimi9,ok,충청남도 천안시 동남구 목천읍 운전4길 6,127.23093169568132,36.76544800731594,도로명 주소,목천읍,
"충청남도 천안시 동남구 목천읍 운전4길 6, 1층",gimi9,ok,"충청남도 천안시 동남구 목천읍 운전4길 6, 1층",127.23093169568132,36.76544800731594,도로명 주소,목천읍,
충청남도 천안시 동남구 목천읍 응원1길 69-35,gimi9,ok,충청남도 천안시 동남구 목천읍 응원1길 69-35,127.17628078172817,36.7668804289506,도로명 주소,목천읍,
충청남도 천안시 동남구 목천읍 응원리 222,gimi9,ok,충청남도 천안시 동남구 목천읍 응원리 222,127.18441248126548,36.76214248904633,도로명 주소,목천읍,
충청남도 천안시 동남구 목천읍 천정1길 243-9,gimi9,ok,충청남도 천안시 동남구 목천읍 천정1길 243-9,127.20236813909456,36.76912110333359,도로명 주소,목천읍,
충청남도 천안시 동남구 목천읍 천정리 산3-1,gimi9,ok,충청남도 천안시 동남구 목천읍 천정리 산3-1,127.20817863193652,36.75860626308709,도로명 주소,목천읍,
충청남도 천안시 동남구 목천읍 충절로 1156,gimi9,ok,충청남도 천안시 동남구 목천읍 충절로 1156,127.23582617046031,36.76928123199156,도로명 주소,목천읍,
"충청남도 천안시 동남구 목천읍 충절로 817, 2층",gimi9,ok,"충청남도 천안시 동남구 목천읍 충절로 817, 2층",127.20253342881752,36.76984269635766,도로명 주소,목천읍,
충청남도 천안시 동남구 목천읍 충절로 876(목천읍),gimi9,ok,충청남도 천안시 동남구 목천읍 충절로 876(목천읍),127.20826206221204,36.7720745088227,도로명 주소,목천읍,
"충청남도 천안시 동남구 목천읍 충절로 892, 2층 201호 (목천프라임아파트)",gimi9,ok,"충청남도 천안시 동남구 목천읍 충절로 892, 2층 201호 (목천프라임아파트)",127.2100880454837,36.77221419361469,도로명 주소,목천읍,
"충청남도 천안시 동남구 문화1길 11, 2층 (문화동)",gimi9,ok,"충청남도 천안시 동남구 문화1길 11, 2층 (문화동)",127.15080062628536,36.80896113067723,도로명 주소,문성동,
충청남도 천안시 동남구 문화로 15,gimi9,ok,충청남도 천안시 동남구 문화로 15,127.15027574614383,36.81097887461034,도로명 주소,문성동,
충청남도 천안시 동남구 배울1길 16,gimi9,ok,충청남도 천안시 동남구 배울1길 16,127.13789968441432,36.770249494088525,도로명 주소,청룡동,
충청남도 천안시 동남구 백석로 184(봉명동),gimi9,ok,충청남도 천안시 동남구 백석로 184(봉명동),127.12964033864506,36.81936313427647,도로명 주소,봉명동,
충청남도 천안시 동남구 버들1길 29(원성동),gimi9,ok,충청남도 천안시 동남구 버들1길 29(원성동),127.1531070240052,36.80466787988213,도로명 주소,원성2동,
충청남도 천안시 동남구 버들1길 30,gimi9,ok,충청남도 천안시 동남구 버들1길 30,127.1542300260826,36.80422943078048,도로명 주소,원성2동,
충청남도 천안시 동남구 버들1길30,gimi9,ok,충청남도 천안시 동남구 버들1길30,127.1542300260826,36.80422943078048,도로명 주소,원성2동,
충청남도 천안시 동남구 버들로 153 (원성동),gimi9,ok,충청남도 천안시 동남구 버들로 153 (원성동),127.16353525098842,36.80662698116595,도로명 주소,원성1동,
충청남도 천안시 동남구 버들로 34,gimi9,ok,충청남도 천안시 동남구 버들로 34,127.15109922365986,36.807393453815216,도로명 주소,문성동,
"충청남도 천안시 동남구 버들로 41, 지하1층 (문화동, 파리빌딩)",gimi9,ok,"충청남도 천안시 동남구 버들로 41, 지하1층 (문화동, 파리빌딩)",127.15201934590776,36.80720684146485,도로명 주소,문성동,
충청남도 천안시 동남구 버들로 71 (원성동),gimi9,ok,충청남도 천안시 동남구 버들로 71 (원성동),127.15456069443692,36.807980497710105,도로명 주소,원성1동,
충청남도 천안시 동남구 벌말1길 7,gimi9,ok,충청남도 천안시 동남구 벌말1길 7,127.1743170561296,36.81257963901135,도로명 주소,원성1동,
충청남도 천안시 동남구 병천면 가전리 190-1,gimi9,ok,충청남도 천안시 동남구 병천면 가전리 190-1,127.28490545934616,36.76907358418389,지번 주소,병천면,
충청남도 천안시 동남구 병천면 가전리 430,gimi9,ok,충청남도 천안시 동남구 병천면 가전리 430,127.2798194684884,36.75691236907814,도로명 주소,병천면,
충청남도 천안시 동남구 병천면 가전리 589,gimi9,ok,충청남도 천안시 동남구 병천면 가전리 589,127.26627740267146,36.75967210563205,도로명 주소,병천면,
충청남도 천안시 동남구 병천면 관성리 205,gimi9,ok,충청남도 천안시 동남구 병천면 관성리 205,127.34068569617092,36.81734510781957,도로명 주소,병천면,
충청남도 천안시 동남구 병천면 관성리 744-4,gimi9,ok,충청남도 천안시 동남구 병천면 관성리 744-4,127.32388074365036,36.82130590058219,도로명 주소,병천면,
충청남도 천안시 동남구 병천면 도원리 220-7,gimi9,ok,충청남도 천안시 동남구 병천면 도원리 220-7,127.32096203967168,36.784233024892345,도로명 주소,병천면,
충청남도 천안시 동남구 병천면 도원리 608-5,gimi9,ok,충청남도 천안시 동남구 병천면 도원리 608-5,127.31021232757176,36.77134329202977,도로명 주소,병천면,
충청남도 천안시 동남구 병천면 도원리 728,gimi9,ok,충청남도 천안시 동남구 병천면 도원리 728,127.31979476578056,36.78974828379371,지번 주소,병천면,
충청남도 천안시 동남구 병천면 병천2로 35,gimi9,ok,충청남도 천안시 동남구 병천면 병천2로 35,127.30095080826258,36.76490964333019,도로명 주소,병천면,
충청남도 천안시 동남구 병천면 병천2로 57,gimi9,ok,충청남도 천안시 동남구 병천면 병천2로 57,127.30258257664748,36.76650797644867,도로명 주소,병천면,
충청남도 천안시 동남구 병천면 병천리 109-3,gimi9,ok,충청남도 천안시 동남구 병천면 병천리 109-3,127.300649709849,36.76435923812813,지번 주소,병천면,
충청남도 천안시 동남구 병천면 봉항로 989,gimi9,ok,충청남도 천안시 동남구 병천면 봉항로 989,127.31600692477896,36.84574176247932,도로명 주소,병천면,
충청남도 천안시 동남구 병천면 송정리 124-16,gimi9,ok,충청남도 천안시 동남구 병천면 송정리 124-16,127.31688042774424,36.742713767247736,도로명 주소,병천면,
충청남도 천안시 동남구 병천면 아우내장터2길 46,gimi9,ok,충청남도 천안시 동남구 병천면 아우내장터2길 46,127.29790916653847,36.76262377833633,도로명 주소,병천면,
충청남도 천안시 동남구 병천면 유관순길 38,gimi9,ok,충청남도 천안시 동남구 병천면 유관순길 38,127.30647839926924,36.75895999481396,도로명 주소,병천면,
충청남도 천안시 동남구 병천면 유관순길 86,gimi9,ok,충청남도 천안시 동남구 병천면 유관순길 86,127.31222395988408,36.75975348675146,도로명 주소,병천면,
충청남도 천안시 동남구 병천면 충절로 1745,gimi9,ok,충청남도 천안시 동남구 병천면 충절로 1745,127.29879457892744,36.76251710161071,도로명 주소,병천면,
충청남도 천안시 동남구 병천면 충절로 1872,gimi9,ok,충청남도 천안시 동남구 병천면 충절로 1872,127.31297808988992,36.76293689142484,도로명 주소,병천면,
충청남도 천안시 동남구 복자1길 1,gimi9,ok,충청남도 천안시 동남구 복자1길 1,127.152319547404,36.81519471677467,도로명 주소,문성동,
충청남도 천안시 동남구 복자1길 1(성황동),gimi9,ok,충청남도 천안시 동남구 복자1길 1(성황동),127.152319547404,36.81519471677467,도로명 주소,문성동,
"충청남도 천안시 동남구 복자1길 20, 201호 (성황동)",gimi9,ok,"충청남도 천안시 동남구 복자1길 20, 201호 (성황동)",127.15181930805468,36.81424671343207,도로명 주소,문성동,
충청남도 천안시 동남구 봉명2길 11,gimi9,ok,충청남도 천안시 동남구 봉명2길 11,127.13545926315636,36.80524612325997,도로명 주소,봉명동,
"충청남도 천안시 동남구 봉명2길 27, 4층 (봉명동)",gimi9,ok,"충청남도 천안시 동남구 봉명2길 27, 4층 (봉명동)",127.13553128354587,36.80660755960879,도로명 주소,봉명동,
충청남도 천안시 동남구 봉명동 209-3,gimi9,ok,충청남도 천안시 동남구 봉명동 209-3,127.13482639683332,36.80631692781065,지번 주소,봉명동,
충청남도 천안시 동남구 봉명동 255,gimi9,ok,충청남도 천안시 동남구 봉명동 255,127.13217776711592,36.816306027814186,지번 주소,봉명동,
충청남도 천안시 동남구 봉명동 426,gimi9,ok,충청남도 천안시 동남구 봉명동 426,127.13317851694347,36.81335231095444,지번 주소,봉명동,
충청남도 천안시 동남구 봉명동 44번지 11호 신영빌딩 501호,gimi9,ok,충청남도 천안시 동남구 봉명동 44번지 11호 신영빌딩 501호,127.13982943624792,36.80564706934976,도로명 주소,봉명동,
충청남도 천안시 동남구 봉명동 492,gimi9,ok,충청남도 천안시 동남구 봉명동 492,127.13144792317485,36.811850526314416,지번 주소,봉명동,
충청남도 천안시 동남구 봉명동 500번지,gimi9,ok,충청남도 천안시 동남구 봉명동 500번지,127.13417646049798,36.8133283410506,지번 주소,봉명동,
"충청남도 천안시 동남구 봉명로 46, 2,4층 (봉명동)",gimi9,ok,"충청남도 천안시 동남구 봉명로 46, 2,4층 (봉명동)",127.13361279846936,36.80691717820432,도로명 주소,봉명동,
충청남도 천안시 동남구 봉명로 53,gimi9,ok,충청남도 천안시 동남구 봉명로 53,127.13567219297812,36.80762664920277,도로명 주소,봉명동,
충청남도 천안시 동남구 봉명로53,gimi9,ok,충청남도 천안시 동남구 봉명로53,127.13567219297812,36.80762664920277,도로명 주소,봉명동,
충청남도 천안시 동남구 봉서10길 12,gimi9,ok,충청남도 천안시 동남구 봉서10길 12,127.13097285664352,36.81272347529468,도로명 주소,봉명동,
충청남도 천안시 동남구 봉서11길 22 (봉명동),gimi9,ok,충청남도 천안시 동남구 봉서11길 22 (봉명동),127.13277477730163,36.81337810887212,도로명 주소,봉명동,
"충청남도 천안시 동남구 봉정로 15, 103호 (봉명동)",gimi9,ok,"충청남도 천안시 동남구 봉정로 15, 103호 (봉명동)",127.13896523287508,36.80347191210303,도로명 주소,봉명동,
충청남도 천안시 동남구 봉정로 39,gimi9,ok,충청남도 천안시 동남구 봉정로 39,127.13941410615612,36.80576300158732,도로명 주소,봉명동,
충청남도 천안시 동남구 북면 납안리 328,gimi9,ok,충청남도 천안시 동남구 북면 납안리 328,127.25097297902876,36.85315955611374,도로명 주소,북면,
충청남도 천안시 동남구 북면 대평리 196-3,gimi9,ok,충청남도 천안시 동남구 북면 대평리 196-3,127.29315989865331,36.8787968867545,도로명 주소,북면,
충청남도 천안시 동남구 북면 대평리 496-6,gimi9,ok,충청남도 천안시 동남구 북면 대평리 496-6,127.28204727536853,36.868238954354055,지번 주소,북면,
충청남도 천안시 동남구 북면 매송5길 71,gimi9,ok,충청남도 천안시 동남구 북면 매송5길 71,127.28284470611224,36.80843717759269,도로명 주소,북면,
충청남도 천안시 동남구 북면 복구정3길 7-24,gimi9,ok,충청남도 천안시 동남구 북면 복구정3길 7-24,127.25135673391436,36.769224555347634,도로명 주소,북면,
충청남도 천안시 동남구 북면 사담리 159-3,gimi9,ok,충청남도 천안시 동남구 북면 사담리 159-3,127.26814511620816,36.83515598337557,도로명 주소,북면,
충청남도 천안시 동남구 북면 사담리 181-1,gimi9,ok,충청남도 천안시 동남구 북면 사담리 181-1,127.2663136340458,36.83629725932764,도로명 주소,북면,
충청남도 천안시 동남구 북면 사담리 276-1,gimi9,ok,충청남도 천안시 동남구 북면 사담리 276-1,127.26007548398228,36.837141226786606,지번 주소,북면,
충청남도 천안시 동남구 북면 사담리 426,gimi9,ok,충청남도 천안시 동남구 북면 사담리 426,127.25591854257137,36.83945854574808,지번 주소,북면,
충청남도 천안시 동남구 북면 상동리 221,gimi9,ok,충청남도 천안시 동남구 북면 상동리 221,127.2597110521548,36.7743350577244,지번 주소,북면,
충청남도 천안시 동남구 북면 연춘리 243-34,gimi9,ok,충청남도 천안시 동남구 북면 연춘리 243-34,127.2529498081446,36.77211259547551,도로명 주소,북면,
충청남도 천안시 동남구 북면 오곡2길 134,gimi9,ok,충청남도 천안시 동남구 북면 오곡2길 134,127.28436734658636,36.825153183807096,도로명 주소,북면,
충청남도 천안시 동남구 북면 오곡2길 6-13,gimi9,ok,충청남도 천안시 동남구 북면 오곡2길 6-13,127.27440028503376,36.82461183997415,도로명 주소,북면,
충청남도 천안시 동남구 북면 오곡리 192,gimi9,ok,충청남도 천안시 동남구 북면 오곡리 192,127.28492293913038,36.82696613998391,도로명 주소,북면,
충청남도 천안시 동남구 북면 오곡리 356번지 일원,gimi9,ok,충청남도 천안시 동남구 북면 오곡리 356번지 일원,127.27521958605394,36.824360980634246,도로명 주소,북면,
충청남도 천안시 동남구 북면 용암2길 137-1,gimi9,ok,충청남도 천안시 동남구 북면 용암2길 137-1,127.2594922877488,36.79413998885076,도로명 주소,북면,
충청남도 천안시 동남구 북면 용암3길 10,gimi9,ok,충청남도 천안시 동남구 북면 용암3길 10,127.257884524078,36.7885746422903,도로명 주소,북면,
충청남도 천안시 동남구 북면 용암리 378-2,gimi9,ok,충청남도 천안시 동남구 북면 용암리 378-2,127.25426999742882,36.78329361227505,지번 주소,북면,
충청남도 천안시 동남구 북면 운용리 279-4,gimi9,ok,충청남도 천안시 동남구 북면 운용리 279-4,127.26772508737056,36.87020405614268,지번 주소,북면,
충청남도 천안시 동남구 북면 위례성로 724,gimi9,ok,충청남도 천안시 동남구 북면 위례성로 724,127.27323689440637,36.82746727876036,도로명 주소,북면,
충청남도 천안시 동남구 북면 은지리 18-1,gimi9,ok,충청남도 천안시 동남구 북면 은지리 18-1,127.2710043268061,36.77887372078874,도로명 주소,북면,
충청남도 천안시 동남구 북면 은지리 277-3,gimi9,ok,충청남도 천안시 동남구 북면 은지리 277-3,127.26275742520596,36.7821389260418,도로명 주소,북면,
충청남도 천안시 동남구 북면 은지리 349,gimi9,ok,충청남도 천안시 동남구 북면 은지리 349,127.2589572958782,36.786016637557125,지번 주소,북면,
충청남도 천안시 동남구 사직동 284-39,gimi9,ok,충청남도 천안시 동남구 사직동 284-39,127.14911681861352,36.79960795223529,지번 주소,중앙동,
충청남도 천안시 동남구 사직로 10-6(사직동),gimi9,ok,충청남도 천안시 동남구 사직로 10-6(사직동),127.15001981859392,36.800701389784535,도로명 주소,중앙동,
충청남도 천안시 동남구 사직로 18(사직동),gimi9,ok,충청남도 천안시 동남구 사직로 18(사직동),127.14949941286156,36.80174556063588,도로명 주소,중앙동,
"충청남도 천안시 동남구 사직로 2-2, 1층(사직동)",gimi9,ok,"충청남도 천안시 동남구 사직로 2-2, 1층(사직동)",127.14978589504902,36.80037617254541,도로명 주소,중앙동,
충청남도 천안시 동남구 사직로 28-1(사직동),gimi9,ok,충청남도 천안시 동남구 사직로 28-1(사직동),127.14931586480182,36.80266451718368,도로명 주소,중앙동,
충청남도 천안시 동남구 사직로 30(사직동),gimi9,ok,충청남도 천안시 동남구 사직로 30(사직동),127.14934896010836,36.80278180562513,도로명 주소,중앙동,
"충청남도 천안시 동남구 삼룡2길 14-17, 2층 (삼룡동)",gimi9,ok,"충청남도 천안시 동남구 삼룡2길 14-17, 2층 (삼룡동)",127.16787930425389,36.78976368560899,도로명 주소,청룡동,
충청남도 천안시 동남구 삼룡3길 30(삼룡동),gimi9,ok,충청남도 천안시 동남구 삼룡3길 30(삼룡동),127.16952058515857,36.77818434764254,도로명 주소,청룡동,
충청남도 천안시 동남구 새말1길 29,gimi9,ok,충청남도 천안시 동남구 새말1길 29,127.132319716858,36.79130877237029,도로명 주소,신방동,
충청남도 천안시 동남구 새말1길 51-14,gimi9,ok,충청남도 천안시 동남구 새말1길 51-14,127.13330410882124,36.78936463687677,도로명 주소,일봉동,
충청남도 천안시 동남구 새말1길 73,gimi9,ok,충청남도 천안시 동남구 새말1길 73,127.13119812798617,36.786788936774414,도로명 주소,일봉동,
"충청남도 천안시 동남구 새말3길 38-4, 지하1층(신방동)",gimi9,ok,"충청남도 천안시 동남구 새말3길 38-4, 지하1층(신방동)",127.1310375428637,36.79456812033523,도로명 주소,신방동,
충청남도 천안시 동남구 서부대로 226-12,gimi9,ok,충청남도 천안시 동남구 서부대로 226-12,127.13028399511394,36.78810224517218,도로명 주소,신방동,
"충청남도 천안시 동남구 서부대로 247-26, 103호(신방동)",gimi9,ok,"충청남도 천안시 동남구 서부대로 247-26, 103호(신방동)",127.12630284886592,36.79089337472325,도로명 주소,신방동,
충청남도 천안시 동남구 서부대로 248-18,gimi9,ok,충청남도 천안시 동남구 서부대로 248-18,127.13109260774598,36.79009700378256,도로명 주소,신방동,
"충청남도 천안시 동남구 서부대로 257-13, 301호 (신방동)",gimi9,ok,"충청남도 천안시 동남구 서부대로 257-13, 301호 (신방동)",127.12742457763072,36.79070758502073,도로명 주소,신방동,
"충청남도 천안시 동남구 서부대로 257-3,105호(신방동)",gimi9,ok,"충청남도 천안시 동남구 서부대로 257-3,105호(신방동)",127.12856597571044,36.7910897718532,도로명 주소,신방동,
"충청남도 천안시 동남구 서부대로 285, 4층 401.402호 (신방동)",gimi9,ok,"충청남도 천안시 동남구 서부대로 285, 4층 401.402호 (신방동)",127.12816275565328,36.793351199619806,도로명 주소,신방동,
충청남도 천안시 동남구 성남면 5산단로 331-17,gimi9,ok,충청남도 천안시 동남구 성남면 5산단로 331-17,127.26260074102515,36.756626847517154,도로명 주소,성남면,
충청남도 천안시 동남구 성남면 대화리 313,gimi9,ok,충청남도 천안시 동남구 성남면 대화리 313,127.25500511006932,36.74245823534944,지번 주소,성남면,
충청남도 천안시 동남구 성남면 대화리 315-3,gimi9,ok,충청남도 천안시 동남구 성남면 대화리 315-3,127.25645553482312,36.74073037099391,지번 주소,성남면,
충청남도 천안시 동남구 성남면 대화리 376,gimi9,ok,충청남도 천안시 동남구 성남면 대화리 376,127.25840790693974,36.73607369648956,지번 주소,성남면,
충청남도 천안시 동남구 성남면 대흥신덕길 95,gimi9,ok,충청남도 천안시 동남구 성남면 대흥신덕길 95,127.2507990910176,36.726844868425,도로명 주소,성남면,
충청남도 천안시 동남구 성남면 봉양리 251,gimi9,ok,충청남도 천안시 동남구 성남면 봉양리 251,127.26174195916148,36.72275651566518,도로명 주소,성남면,
"충청남도 천안시 동남구 성남면 석곡3길 8, 101호",gimi9,ok,"충청남도 천안시 동남구 성남면 석곡3길 8, 101호",127.22139275787588,36.73861610824419,도로명 주소,성남면,
"충청남도 천안시 동남구 성남면 석곡3길 8, 1층 103호",gimi9,ok,"충청남도 천안시 동남구 성남면 석곡3길 8, 1층 103호",127.22139275787588,36.73861610824419,도로명 주소,성남면,
충청남도 천안시 동남구 성남면 석곡리 560-1,gimi9,ok,충청남도 천안시 동남구 성남면 석곡리 560-1,127.22174447483526,36.74047397891324,도로명 주소,성남면,
충청남도 천안시 동남구 성남면 신덕리 245,gimi9,ok,충청남도 천안시 동남구 성남면 신덕리 245,127.2449725321094,36.72099993592352,도로명 주소,성남면,
충청남도 천안시 동남구 성남면 신덕리 517,gimi9,ok,충청남도 천안시 동남구 성남면 신덕리 517,127.23396556764826,36.72075948879888,도로명 주소,성남면,
충청남도 천안시 동남구 성남면 신사대화로 115-8,gimi9,ok,충청남도 천안시 동남구 성남면 신사대화로 115-8,127.233249203485,36.74333096744631,도로명 주소,성남면,
충청남도 천안시 동남구 성남면 신사대화로 155,gimi9,ok,충청남도 천안시 동남구 성남면 신사대화로 155,127.23757650394528,36.74228585755729,도로명 주소,성남면,
충청남도 천안시 동남구 성남면 신사대화로 403,gimi9,ok,충청남도 천안시 동남구 성남면 신사대화로 403,127.26105556294436,36.73104877635783,도로명 주소,성남면,
충청남도 천안시 동남구 성남면 신사리 248-6,gimi9,ok,충청남도 천안시 동남구 성남면 신사리 248-6,127.24076901591393,36.74890069570829,지번 주소,성남면,
충청남도 천안시 동남구 성남면 약수로 323-18,gimi9,ok,충청남도 천안시 동남구 성남면 약수로 323-18,127.21937084762044,36.74328102029036,도로명 주소,성남면,
충청남도 천안시 동남구 성남면 용원리 372-7,gimi9,ok,충청남도 천안시 동남구 성남면 용원리 372-7,127.21418582340884,36.74899306798471,지번 주소,성남면,
충청남도 천안시 동남구 성남면 용원리 452-4,gimi9,ok,충청남도 천안시 동남구 성남면 용원리 452-4,127.21010361638751,36.75319309317744,도로명 주소,성남면,
충청남도 천안시 동남구 성남면 화성리 286,gimi9,ok,충청남도 천안시 동남구 성남면 화성리 286,127.25738729231392,36.75074770931147,도로명 주소,성남면,
충청남도 천안시 동남구 성남면 화성리 441-3,gimi9,ok,충청남도 천안시 동남구 성남면 화성리 441-3,127.2525368505134,36.74718589507398,도로명 주소,성남면,
충청남도 천안시 동남구 성황5길 17 (성황동),gimi9,ok,충청남도 천안시 동남구 성황5길 17 (성황동),127.15510029081024,36.815148726346365,도로명 주소,문성동,
충청남도 천안시 동남구 수신면 속창리 54-6,gimi9,ok,충청남도 천안시 동남구 수신면 속창리 54-6,127.28051780717544,36.72806629196041,도로명 주소,수신면,
충청남도 천안시 동남구 수신면 수신로 431,gimi9,ok,충청남도 천안시 동남구 수신면 수신로 431,127.28095727194491,36.731060022414624,도로명 주소,수신면,
충청남도 천안시 동남구 수신면 수신로 459,gimi9,ok,충청남도 천안시 동남구 수신면 수신로 459,127.28268972568593,36.732298228377616,도로명 주소,수신면,
충청남도 천안시 동남구 수신면 신풍리 106-5,gimi9,ok,충청남도 천안시 동남구 수신면 신풍리 106-5,127.27357069530972,36.74073712102851,도로명 주소,수신면,
충청남도 천안시 동남구 수신면 신풍리 416-10,gimi9,ok,충청남도 천안시 동남구 수신면 신풍리 416-10,127.26972701191968,36.73006522431852,도로명 주소,수신면,
충청남도 천안시 동남구 수신면 신풍리 451-4,gimi9,ok,충청남도 천안시 동남구 수신면 신풍리 451-4,127.26540867066927,36.728533286728975,도로명 주소,수신면,
충청남도 천안시 동남구 수신면 신풍리 575,gimi9,ok,충청남도 천안시 동남구 수신면 신풍리 575,127.26569047307136,36.73899102473032,지번 주소,수신면,
충청남도 천안시 동남구 수신면 해정리 331,gimi9,not_found,충청남도 천안시 동남구 수신면 해정리 331,127.27457989062611,36.72120392474893,인근 지번 주소,수신면,인근 지번 주소: 331-1
충청남도 천안시 동남구 수신면 해정리 454-3,gimi9,ok,충청남도 천안시 동남구 수신면 해정리 454-3,127.26517055047968,36.72581935551938,지번 주소,수신면,
"충청남도 천안시 동남구 순천향1길 9, 4층 (쌍용동)",gimi9,ok,"충청남도 천안시 동남구 순천향1길 9, 4층 (쌍용동)",127.13217255476852,36.80099009098266,도로명 주소,봉명동,
충청남도 천안시 동남구 순천향4길 50 (봉명동),gimi9,ok,충청남도 천안시 동남구 순천향4길 50 (봉명동),127.13638080226166,36.80239129196017,도로명 주소,봉명동,
충청남도 천안시 동남구 신방동 1073,gimi9,ok,충청남도 천안시 동남구 신방동 1073,127.13035814960328,36.77732990127228,지번 주소,신방동,
충청남도 천안시 동남구 신방동 1392,gimi9,ok,충청남도 천안시 동남구 신방동 1392,127.12877844718994,36.77260127019734,지번 주소,신방동,
충청남도 천안시 동남구 신방동 1521,gimi9,ok,충청남도 천안시 동남구 신방동 1521,127.13073075607792,36.77441029012661,도로명 주소,신방동,
충청남도 천안시 동남구 신방동 1600,gimi9,ok,충청남도 천안시 동남구 신방동 1600,127.13660563782352,36.77615019194024,지번 주소,신방동,
충청남도 천안시 동남구 신방동 1766,gimi9,ok,충청남도 천안시 동남구 신방동 1766,127.13707562210584,36.77391597605023,지번 주소,신방동,
충청남도 천안시 동남구 신방동 1925,gimi9,ok,충청남도 천안시 동남구 신방동 1925,127.13143514775504,36.77005836336349,지번 주소,신방동,
충청남도 천안시 동남구 신방동 719,gimi9,ok,충청남도 천안시 동남구 신방동 719,127.1204128457294,36.78522251005437,도로명 주소,신방동,
충청남도 천안시 동남구 신방동 778-1,gimi9,ok,충청남도 천안시 동남구 신방동 778-1,127.11962240985252,36.786418940039546,지번 주소,신방동,
충청남도 천안시 동남구 신방동 898,gimi9,ok,충청남도 천안시 동남구 신방동 898,127.129516411603,36.79156150002704,도로명 주소,신방동,
충청남도 천안시 동남구 신방동 912,gimi9,ok,충청남도 천안시 동남구 신방동 912,127.13074355485612,36.78809465796838,지번 주소,신방동,
충청남도 천안시 동남구 신방동 919,gimi9,ok,충청남도 천안시 동남구 신방동 919,127.12642315364222,36.78689122756231,도로명 주소,신방동,
충청남도 천안시 동남구 신방동 945,gimi9,ok,충청남도 천안시 동남구 신방동 945,127.1307158009623,36.77986414635344,도로명 주소,신방동,
"충청남도 천안시 동남구 신부12길 12, 1층(신부동)",gimi9,ok,"충청남도 천안시 동남구 신부12길 12, 1층(신부동)",127.15945999313308,36.81806401255773,도로명 주소,신안동,
"충청남도 천안시 동남구 신부15길 15, 3층 301호 (신부동)",gimi9,ok,"충청남도 천안시 동남구 신부15길 15, 3층 301호 (신부동)",127.16237863642372,36.81983019379391,도로명 주소,신안동,
충청남도 천안시 동남구 신부1길 6(신부동),gimi9,ok,충청남도 천안시 동남구 신부1길 6(신부동),127.15899514708472,36.81416834560381,도로명 주소,신안동,
충청남도 천안시 동남구 신부2길 12,gimi9,ok,충청남도 천안시 동남구 신부2길 12,127.15952866333627,36.81774869604158,도로명 주소,신안동,
충청남도 천안시 동남구 신부2길 27(신부동),gimi9,ok,충청남도 천안시 동남구 신부2길 27(신부동),127.15916631956752,36.81854996286933,도로명 주소,신안동,
충청남도 천안시 동남구 신부2길 8-9(신부동),gimi9,ok,충청남도 천안시 동남구 신부2길 8-9(신부동),127.15973395226648,36.81696500801688,도로명 주소,신안동,
충청남도 천안시 동남구 신부3길 16-6,gimi9,ok,충청남도 천안시 동남구 신부3길 16-6,127.16027033364271,36.81737220143476,도로명 주소,신안동,
충청남도 천안시 동남구 신부동 115-73번지,gimi9,ok,충청남도 천안시 동남구 신부동 115-73번지,127.16480495357656,36.81881840129772,지번 주소,신안동,
충청남도 천안시 동남구 신부동 124 일원,gimi9,ok,충청남도 천안시 동남구 신부동 124 일원,127.16249192771302,36.82467138547696,도로명 주소,신안동,
충청남도 천안시 동남구 신부동 157번지,gimi9,ok,충청남도 천안시 동남구 신부동 157번지,127.16451272112576,36.82668737135828,지번 주소,신안동,
충청남도 천안시 동남구 신부동 497-1,gimi9,ok,충청남도 천안시 동남구 신부동 497-1,127.16180660663532,36.8198736415797,도로명 주소,신안동,
충청남도 천안시 동남구 신부동 542,gimi9,ok,충청남도 천안시 동남구 신부동 542,127.15530899121649,36.8236140953834,도로명 주소,신안동,
충청남도 천안시 동남구 신부동 671,gimi9,ok,충청남도 천안시 동남구 신부동 671,127.16026258042292,36.82166315705528,지번 주소,신안동,
충청남도 천안시 동남구 신부동 888,gimi9,ok,충청남도 천안시 동남구 신부동 888,127.15014516894855,36.82242710965536,지번 주소,신안동,
충청남도 천안시 동남구 신용로 48,gimi9,ok,충청남도 천안시 동남구 신용로 48,127.14196987724154,36.800992943403,도로명 주소,일봉동,
"충청남도 천안시 동남구 신용로 64, B동 2층 5호 (다가동, 천안기계공구상가)",gimi9,ok,"충청남도 천안시 동남구 신용로 64, B동 2층 5호 (다가동, 천안기계공구상가)",127.14376291428654,36.80110650366606,도로명 주소,일봉동,
충청남도 천안시 동남구 신원1길 9 (원성동),gimi9,ok,충청남도 천안시 동남구 신원1길 9 (원성동),127.15991732568214,36.81353094500428,도로명 주소,원성1동,
"충청남도 천안시 동남구 신원3길 34, 1동 103호 (신부동, 극동아파트)",gimi9,ok,"충청남도 천안시 동남구 신원3길 34, 1동 103호 (신부동, 극동아파트)",127.16456512760344,36.814679994021056,도로명 주소,신안동,
"충청남도 천안시 동남구 신촌1길 10, 2층 (신방동, 호마노빌딩)",gimi9,ok,"충청남도 천안시 동남구 신촌1길 10, 2층 (신방동, 호마노빌딩)",127.1197586640032,36.78833049130569,도로명 주소,신방동,
"충청남도 천안시 동남구 신촌1길 12, B1~2층 (신방동, 이삭빌딩)",gimi9,ok,"충청남도 천안시 동남구 신촌1길 12, B1~2층 (신방동, 이삭빌딩)",127.11969204129346,36.78820407258698,도로명 주소,신방동,
충청남도 천안시 동남구 신촌4로 16,gimi9,ok,충청남도 천안시 동남구 신촌4로 16,127.12479419313898,36.787679393965504,도로명 주소,신방동,
"충청남도 천안시 동남구 신촌4로 16, 2층 206-13호 (신방동, 초원그린타운,상가1동)",gimi9,ok,"충청남도 천안시 동남구 신촌4로 16, 2층 206-13호 (신방동, 초원그린타운,상가1동)",127.12479419313898,36.787679393965504,도로명 주소,신방동,
"충청남도 천안시 동남구 신촌4로 16, 상가1동 2층 205-4호 (신방동, 초원그린타운)",gimi9,ok,"충청남도 천안시 동남구 신촌4로 16, 상가1동 2층 205-4호 (신방동, 초원그린타운)",127.12479419313898,36.787679393965504,도로명 주소,신방동,
충청남도 천안시 동남구 신촌4로 34(신방동),gimi9,ok,충청남도 천안시 동남구 신촌4로 34(신방동),127.1251343845368,36.78916789145177,도로명 주소,신방동,
"충청남도 천안시 동남구 신촌4로 42, 2층 236호 (신방동, 신방현대프라자)",gimi9,ok,"충청남도 천안시 동남구 신촌4로 42, 2층 236호 (신방동, 신방현대프라자)",127.12545660451428,36.7897458469625,도로명 주소,신방동,
충청남도 천안시 동남구 신촌4로 46,gimi9,ok,충청남도 천안시 동남구 신촌4로 46,127.12607181531966,36.790000193987886,도로명 주소,신방동,
충청남도 천안시 동남구 신촌4로 9,gimi9,ok,충청남도 천안시 동남구 신촌4로 9,127.122967964753,36.78754741372718,도로명 주소,신방동,
"충청남도 천안시 동남구 신촌로 41, 2층 215호 (신방동)",gimi9,ok,"충청남도 천안시 동남구 신촌로 41, 2층 215호 (신방동)",127.12309976306308,36.7880977279082,도로명 주소,신방동,
"충청남도 천안시 동남구 쌍용대로 94-7, 202호 (봉명동)",gimi9,ok,"충청남도 천안시 동남구 쌍용대로 94-7, 202호 (봉명동)",127.13335972845674,36.805915769741496,도로명 주소,봉명동,
충청남도 천안시 동남구 쌍용동 551-4,gimi9,ok,충청남도 천안시 동남구 쌍용동 551-4,127.13302541442452,36.80314723360664,지번 주소,봉명동,
충청남도 천안시 동남구 안서1길 5-13(안서동),gimi9,ok,충청남도 천안시 동남구 안서1길 5-13(안서동),127.17761662247258,36.83048273089888,도로명 주소,신안동,
충청남도 천안시 동남구 안서동 228-6,gimi9,ok,충청남도 천안시 동남구 안서동 228-6,127.17916467524586,36.83036071313308,지번 주소,신안동,
충청남도 천안시 동남구 안서동 270-5,gimi9,ok,충청남도 천안시 동남구 안서동 270-5,127.18567735426566,36.82827769473419,지번 주소,신안동,
충청남도 천안시 동남구 안서동 526-153,gimi9,ok,충청남도 천안시 동남구 안서동 526-153,127.17931425911875,36.84019608915102,지번 주소,신안동,
충청남도 천안시 동남구 양지2길 22,gimi9,ok,충청남도 천안시 동남구 양지2길 22,127.1360589738755,36.80880875518445,도로명 주소,봉명동,
충청남도 천안시 동남구 양지2길 28 (봉명동),gimi9,ok,충청남도 천안시 동남구 양지2길 28 (봉명동),127.13596642856096,36.80941245470997,도로명 주소,봉명동,
충청남도 천안시 동남구 양지4길 15(봉명동),gimi9,ok,충청남도 천안시 동남구 양지4길 15(봉명동),127.13733899697772,36.80838897602032,도로명 주소,봉명동,
충청남도 천안시 동남구 양지4길 6-7,gimi9,ok,충청남도 천안시 동남구 양지4길 6-7,127.13834115722766,36.80745450210065,도로명 주소,봉명동,
충청남도 천안시 동남구 양지말2길 22 (유량동),gimi9,ok,충청남도 천안시 동남구 양지말2길 22 (유량동),127.18215623911291,36.81471929769655,도로명 주소,원성1동,
충청남도 천안시 동남구 영성로 25-19(사직동),gimi9,ok,충청남도 천안시 동남구 영성로 25-19(사직동),127.15008822432137,36.80044917987299,도로명 주소,중앙동,
"충청남도 천안시 동남구 영성로 30, 2층 (영성동)",gimi9,ok,"충청남도 천안시 동남구 영성로 30, 2층 (영성동)",127.15085930947296,36.80097429766413,도로명 주소,중앙동,
충청남도 천안시 동남구 영성로 36(영성동),gimi9,ok,충청남도 천안시 동남구 영성로 36(영성동),127.15077863197357,36.80146085375717,도로명 주소,중앙동,
충청남도 천안시 동남구 영성로 73,gimi9,ok,충청남도 천안시 동남구 영성로 73,127.14891100953476,36.80540378532925,도로명 주소,중앙동,
충청남도 천안시 동남구 옛시청길 32,gimi9,ok,충청남도 천안시 동남구 옛시청길 32,127.15088176525975,36.80590539408821,도로명 주소,중앙동,
충청남도 천안시 동남구 옛시청길 39,gimi9,ok,충청남도 천안시 동남구 옛시청길 39,127.15060903107924,36.80671591405141,도로명 주소,문성동,
충청남도 천안시 동남구 오룡동 43-14,gimi9,ok,충청남도 천안시 동남구 오룡동 43-14,127.15081249754816,36.80634690990014,지번 주소,중앙동,
충청남도 천안시 동남구 용곡2길 141,gimi9,ok,충청남도 천안시 동남구 용곡2길 141,127.14417011146112,36.79304859085436,도로명 주소,nan,
충청남도 천안시 동남구 용곡2길 43-22,gimi9,ok,충청남도 천안시 동남구 용곡2길 43-22,127.13503115278702,36.78915359572324,도로명 주소,일봉동,
"충청남도 천안시 동남구 용곡4길 59, 1층 (용곡동)",gimi9,ok,"충청남도 천안시 동남구 용곡4길 59, 1층 (용곡동)",127.146056212537,36.794821098324135,도로명 주소,일봉동,
"충청남도 천안시 동남구 용곡4길 59, 2층,3층 (용곡동)",gimi9,ok,"충청남도 천안시 동남구 용곡4길 59, 2층,3층 (용곡동)",127.146056212537,36.794821098324135,도로명 주소,일봉동,
"충청남도 천안시 동남구 용곡6길 7-24, 1층(용곡동)",gimi9,ok,"충청남도 천안시 동남구 용곡6길 7-24, 1층(용곡동)",127.14368862838836,36.79052303443084,도로명 주소,일봉동,
충청남도 천안시 동남구 용곡동 315-1,gimi9,ok,충청남도 천안시 동남구 용곡동 315-1,127.14210599458234,36.793421015157655,지번 주소,일봉동,
충청남도 천안시 동남구 용곡동 324-16,gimi9,ok,충청남도 천안시 동남구 용곡동 324-16,127.14396539744462,36.79368802156095,지번 주소,일봉동,
충청남도 천안시 동남구 용곡동 498 일원,gimi9,ok,충청남도 천안시 동남구 용곡동 498 일원,127.12999664326124,36.78492817703543,지번 주소,신방동,
충청남도 천안시 동남구 용곡동 597,gimi9,ok,충청남도 천안시 동남구 용곡동 597,127.13256609223907,36.78665794966505,지번 주소,일봉동,
충청남도 천안시 동남구 용곡동 601,gimi9,ok,충청남도 천안시 동남구 용곡동 601,127.13920675386632,36.792609948490814,지번 주소,일봉동,
충청남도 천안시 동남구 용곡동 용곡1차세광엔리치타워아파트 107동 502호,gimi9,not_found,충청남도 천안시 동남구 용곡동 용곡1차세광엔리치타워아파트 107동 502호,127.13895750632696,36.78839932857258,법정동 대표주소,nan,법정동 대표주소
충청남도 천안시 동남구 용곡동 용곡1차세광엔리치타워아파트 107동 602호,gimi9,not_found,충청남도 천안시 동남구 용곡동 용곡1차세광엔리치타워아파트 107동 602호,127.13895750632696,36.78839932857258,법정동 대표주소,nan,법정동 대표주소
충청남도 천안시 동남구 용수골길 70 (용곡동),gimi9,ok,충청남도 천안시 동남구 용수골길 70 (용곡동),127.13672332396696,36.78208223308603,도로명 주소,신방동,
"충청남도 천안시 동남구 우영1길 10, 106호(봉명동)",gimi9,ok,"충청남도 천안시 동남구 우영1길 10, 106호(봉명동)",127.14167174583592,36.80483229892232,도로명 주소,봉명동,
충청남도 천안시 동남구 우영1길 4 (봉명동),gimi9,ok,충청남도 천안시 동남구 우영1길 4 (봉명동),127.14016081934513,36.80430488578438,도로명 주소,봉명동,
"충청남도 천안시 동남구 우영3길 21, 2층 (봉명동)",gimi9,ok,"충청남도 천안시 동남구 우영3길 21, 2층 (봉명동)",127.14116796115276,36.80468654516704,도로명 주소,봉명동,
"충청남도 천안시 동남구 우영3길 21, 3,4층 301,401호 (봉명동)",gimi9,ok,"충청남도 천안시 동남구 우영3길 21, 3,4층 301,401호 (봉명동)",127.14116796115276,36.80468654516704,도로명 주소,봉명동,
"충청남도 천안시 동남구 우영3길 21, 3층 (봉명동)",gimi9,ok,"충청남도 천안시 동남구 우영3길 21, 3층 (봉명동)",127.14116796115276,36.80468654516704,도로명 주소,봉명동,
충청남도 천안시 동남구 우영3길 22-3 (봉명동),gimi9,ok,충청남도 천안시 동남구 우영3길 22-3 (봉명동),127.14148487100168,36.80403844416866,도로명 주소,봉명동,
충청남도 천안시 동남구 원거리11길 31,gimi9,ok,충청남도 천안시 동남구 원거리11길 31,127.15753542937026,36.80207547071947,도로명 주소,원성2동,
충청남도 천안시 동남구 원거리11길 42 (원성동),gimi9,ok,충청남도 천안시 동남구 원거리11길 42 (원성동),127.15761855275852,36.80103000650216,도로명 주소,원성2동,
충청남도 천안시 동남구 원거리11길 52 (원성동),gimi9,ok,충청남도 천안시 동남구 원거리11길 52 (원성동),127.15858238140932,36.80107785063141,도로명 주소,원성2동,
"충청남도 천안시 동남구 원거리12길 2, 1층 (원성동)",gimi9,ok,"충청남도 천안시 동남구 원거리12길 2, 1층 (원성동)",127.15519048260786,36.80253745898817,도로명 주소,원성2동,
"충청남도 천안시 동남구 원거리9길 20-1, 2층 (원성동)",gimi9,ok,"충청남도 천안시 동남구 원거리9길 20-1, 2층 (원성동)",127.1562996426178,36.8001698071616,도로명 주소,원성2동,
충청남도 천안시 동남구 원성16길 8(원성동),gimi9,ok,충청남도 천안시 동남구 원성16길 8(원성동),127.15927598380794,36.80898571478936,도로명 주소,원성1동,
"충청남도 천안시 동남구 원성18길 5-1, 1층 (원성동)",gimi9,ok,"충청남도 천안시 동남구 원성18길 5-1, 1층 (원성동)",127.16203059144571,36.80973277825695,도로명 주소,원성1동,
충청남도 천안시 동남구 원성25길 21,gimi9,ok,충청남도 천안시 동남구 원성25길 21,127.16147278153971,36.814202468503154,도로명 주소,원성1동,
충청남도 천안시 동남구 원성2교길 29(원성동),gimi9,ok,충청남도 천안시 동남구 원성2교길 29(원성동),127.15591404150892,36.8036754045621,도로명 주소,원성2동,
충청남도 천안시 동남구 원성7길 17,gimi9,ok,충청남도 천안시 동남구 원성7길 17,127.16366429610456,36.80788038651532,도로명 주소,원성1동,
충청남도 천안시 동남구 원성동 238-10,gimi9,ok,충청남도 천안시 동남구 원성동 238-10,127.15653992228698,36.81162815804219,도로명 주소,원성1동,
충청남도 천안시 동남구 원성동 244-8,gimi9,ok,충청남도 천안시 동남구 원성동 244-8,127.1543513659016,36.809656618827496,도로명 주소,원성1동,
충청남도 천안시 동남구 원성동 631,gimi9,ok,충청남도 천안시 동남구 원성동 631,127.1620717906365,36.80290878284243,지번 주소,원성2동,
충청남도 천안시 동남구 원성천1길 17,gimi9,ok,충청남도 천안시 동남구 원성천1길 17,127.15258978482956,36.80005085234226,도로명 주소,중앙동,
충청남도 천안시 동남구 원성천2길 96 (원성동),gimi9,ok,충청남도 천안시 동남구 원성천2길 96 (원성동),127.16072627853512,36.80551921009405,도로명 주소,원성2동,
충청남도 천안시 동남구 유량동 230-1,gimi9,ok,충청남도 천안시 동남구 유량동 230-1,127.1724709819996,36.816946683679205,지번 주소,원성1동,
충청남도 천안시 동남구 은행길 5-5(대흥동),gimi9,ok,충청남도 천안시 동남구 은행길 5-5(대흥동),127.14841421363818,36.80862957133046,도로명 주소,중앙동,
"충청남도 천안시 동남구 일봉로 17, 상가동 201호 (신방동, 성지새말아파트1단지)",gimi9,ok,"충청남도 천안시 동남구 일봉로 17, 상가동 201호 (신방동, 성지새말아파트1단지)",127.12874311720334,36.793866849812666,도로명 주소,신방동,
"충청남도 천안시 동남구 일봉로 20, 상가동 203호(신방동)",gimi9,ok,"충청남도 천안시 동남구 일봉로 20, 상가동 203호(신방동)",127.1304232817285,36.791771659153866,도로명 주소,신방동,
충청남도 천안시 동남구 일봉로 82-18,gimi9,ok,충청남도 천안시 동남구 일봉로 82-18,127.13581139511938,36.79006647163318,도로명 주소,일봉동,
충청남도 천안시 동남구 정골2길 97 (구성동),gimi9,ok,충청남도 천안시 동남구 정골2길 97 (구성동),127.17747575867162,36.79991360230687,도로명 주소,청룡동,
충청남도 천안시 동남구 중암2길 23(안서동),gimi9,ok,충청남도 천안시 동남구 중암2길 23(안서동),127.17707539747104,36.83118440461271,도로명 주소,신안동,
충청남도 천안시 동남구 중암3길 10,gimi9,ok,충청남도 천안시 동남구 중암3길 10,127.17537864736885,36.83199110222932,도로명 주소,신안동,
충청남도 천안시 동남구 중앙3길 10,gimi9,ok,충청남도 천안시 동남구 중앙3길 10,127.17537864736885,36.83199110222932,도로명 주소,신안동,
"충청남도 천안시 동남구 중앙로 111 (문화동, 영상미디어센터)",gimi9,ok,"충청남도 천안시 동남구 중앙로 111 (문화동, 영상미디어센터)",127.15224844823956,36.8086047861601,도로명 주소,원성1동,
"충청남도 천안시 동남구 중앙로 140, 1,2층 (문화동)",gimi9,ok,"충청남도 천안시 동남구 중앙로 140, 1,2층 (문화동)",127.15305654126784,36.81088785839111,도로명 주소,문성동,
충청남도 천안시 동남구 중앙로 169,gimi9,ok,충청남도 천안시 동남구 중앙로 169,127.15061378590998,36.81307127118483,도로명 주소,문성동,
충청남도 천안시 동남구 중앙로 188,gimi9,ok,충청남도 천안시 동남구 중앙로 188,127.1538555902849,36.81519018312475,도로명 주소,문성동,
충청남도 천안시 동남구 중앙로 221(신부동),gimi9,ok,충청남도 천안시 동남구 중앙로 221(신부동),127.15232916919798,36.818025348602426,도로명 주소,신안동,
충청남도 천안시 동남구 중앙로 281-5,gimi9,ok,충청남도 천안시 동남구 중앙로 281-5,127.1519931498406,36.822901294347645,도로명 주소,신안동,
충청남도 천안시 동남구 중앙로 64 (영성동),gimi9,ok,충청남도 천안시 동남구 중앙로 64 (영성동),127.15285216075296,36.80400906457874,도로명 주소,중앙동,
충청남도 천안시 동남구 중앙로 7 (원성동),gimi9,ok,충청남도 천안시 동남구 중앙로 7 (원성동),127.1534236735366,36.799079698937376,도로명 주소,원성2동,
"충청남도 천안시 동남구 차돌고개5길 15, 1동 102호(다가동)",gimi9,ok,"충청남도 천안시 동남구 차돌고개5길 15, 1동 102호(다가동)",127.13557816115348,36.79908044744307,도로명 주소,일봉동,
"충청남도 천안시 동남구 천안대로 215, 3층 (삼룡동)",gimi9,ok,"충청남도 천안시 동남구 천안대로 215, 3층 (삼룡동)",127.1650958888658,36.7674534581502,도로명 주소,청룡동,
충청남도 천안시 동남구 천안대로 400,gimi9,ok,충청남도 천안시 동남구 천안대로 400,127.16576441690572,36.78380805302699,도로명 주소,청룡동,
충청남도 천안시 동남구 천안대로 844,gimi9,ok,충청남도 천안시 동남구 천안대로 844,127.16249192771302,36.82467138547696,도로명 주소,신안동,
충청남도 천안시 동남구 천안대로357,gimi9,ok,충청남도 천안시 동남구 천안대로357,127.1637652475852,36.77965564910412,도로명 주소,청룡동,
충청남도 천안시 동남구 천안삼거리길 27,gimi9,ok,충청남도 천안시 동남구 천안삼거리길 27,127.16331984936684,36.78668586710034,도로명 주소,청룡동,
충청남도 천안시 동남구 천안여상로 44,gimi9,ok,충청남도 천안시 동남구 천안여상로 44,127.13408585302284,36.80409704192781,도로명 주소,봉명동,
충청남도 천안시 동남구 천안여상로 44(봉명동 216-1),gimi9,ok,충청남도 천안시 동남구 천안여상로 44(봉명동 216-1),127.13408585302284,36.80409704192781,도로명 주소,봉명동,
"충청남도 천안시 동남구 천안여상로 59, 102호 (봉명동)",gimi9,ok,"충청남도 천안시 동남구 천안여상로 59, 102호 (봉명동)",127.13860757284996,36.80324545889383,도로명 주소,봉명동,
충청남도 천안시 동남구 천안천5길 6(성황동),gimi9,ok,충청남도 천안시 동남구 천안천5길 6(성황동),127.14869523925024,36.81337211767742,도로명 주소,문성동,
충청남도 천안시 동남구 천안천9길 58,gimi9,ok,충청남도 천안시 동남구 천안천9길 58,127.15736891431104,36.821835147466935,도로명 주소,신안동,
"충청남도 천안시 동남구 천안천공원3길 5-31, 상가동 202호 (다가동, 서해그랑블아파트)",gimi9,ok,"충청남도 천안시 동남구 천안천공원3길 5-31, 상가동 202호 (다가동, 서해그랑블아파트)",127.14536343931518,36.80164315311325,도로명 주소,일봉동,
충청남도 천안시 동남구 천안천공원4길 4 (영성동),gimi9,ok,충청남도 천안시 동남구 천안천공원4길 4 (영성동),127.15116380101158,36.79809950598021,도로명 주소,중앙동,
충청남도 천안시 동남구 천안천변길 129-41,gimi9,ok,충청남도 천안시 동남구 천안천변길 129-41,127.1224830544941,36.78586914187506,도로명 주소,신방동,
"충청남도 천안시 동남구 청당2길 118, 108동 207호 (청당동, 청당마을벽산블루밍아파트)",gimi9,ok,"충청남도 천안시 동남구 청당2길 118, 108동 207호 (청당동, 청당마을벽산블루밍아파트)",127.15825667992,36.778504097268645,도로명 주소,청룡동,
충청남도 천안시 동남구 청당2길 94,gimi9,ok,충청남도 천안시 동남구 청당2길 94,127.15151460354146,36.78004408439318,도로명 주소,청룡동,
충청남도 천안시 동남구 청당동 120-8,gimi9,ok,충청남도 천안시 동남구 청당동 120-8,127.15398896426576,36.778068068992845,지번 주소,청룡동,
충청남도 천안시 동남구 청당동 142-9,gimi9,ok,충청남도 천안시 동남구 청당동 142-9,127.15549209029628,36.78024497871926,지번 주소,청룡동,
충청남도 천안시 동남구 청당동 156-2,gimi9,ok,충청남도 천안시 동남구 청당동 156-2,127.1524814355165,36.78184985582247,지번 주소,청룡동,
충청남도 천안시 동남구 청당동 474,gimi9,ok,충청남도 천안시 동남구 청당동 474,127.1535359469308,36.78659466963212,지번 주소,청룡동,
충청남도 천안시 동남구 청당동 546,gimi9,ok,충청남도 천안시 동남구 청당동 546,127.15712821794982,36.78277382613387,도로명 주소,청룡동,
충청남도 천안시 동남구 청당동 602,gimi9,ok,충청남도 천안시 동남구 청당동 602,127.15707796839504,36.78902087478524,지번 주소,청룡동,
충청남도 천안시 동남구 청당동 651,gimi9,ok,충청남도 천안시 동남구 청당동 651,127.16001903829694,36.78545047822979,지번 주소,청룡동,
충청남도 천안시 동남구 청당동 776,gimi9,ok,충청남도 천안시 동남구 청당동 776,127.1606673577225,36.7832978131333,지번 주소,청룡동,
충청남도 천안시 동남구 청당동 870,gimi9,ok,충청남도 천안시 동남구 청당동 870,127.16224018301924,36.78242786196998,지번 주소,청룡동,
"충청남도 천안시 동남구 청당산업길 76, 302호 (구룡동)",gimi9,ok,"충청남도 천안시 동남구 청당산업길 76, 302호 (구룡동)",127.1586503206852,36.76807518628519,도로명 주소,청룡동,
충청남도 천안시 동남구 청당용평로 112,gimi9,ok,충청남도 천안시 동남구 청당용평로 112,127.1604949348408,36.77665347317494,도로명 주소,청룡동,
"충청남도 천안시 동남구 청수10길 15, 1층 101호 (청당동, 스위트홈)",gimi9,ok,"충청남도 천안시 동남구 청수10길 15, 1층 101호 (청당동, 스위트홈)",127.16090628033255,36.78248717010682,도로명 주소,청룡동,
"충청남도 천안시 동남구 청수11로 11, 4층 (청당동)",gimi9,ok,"충청남도 천안시 동남구 청수11로 11, 4층 (청당동)",127.1537195136808,36.78316059969314,도로명 주소,청룡동,
"충청남도 천안시 동남구 청수11로 11, 5층 (청당동)",gimi9,ok,"충청남도 천안시 동남구 청수11로 11, 5층 (청당동)",127.1537195136808,36.78316059969314,도로명 주소,청룡동,
"충청남도 천안시 동남구 청수11로 11, 6층 (청당동)",gimi9,ok,"충청남도 천안시 동남구 청수11로 11, 6층 (청당동)",127.1537195136808,36.78316059969314,도로명 주소,청룡동,
"충청남도 천안시 동남구 청수11로 13-17, 4층 401호 (청당동, 제이제이타워)",gimi9,ok,"충청남도 천안시 동남구 청수11로 13-17, 4층 401호 (청당동, 제이제이타워)",127.15359416716768,36.78361998506176,도로명 주소,청룡동,
"충청남도 천안시 동남구 청수11로 24, 4층 401호 (청당동)",gimi9,ok,"충청남도 천안시 동남구 청수11로 24, 4층 401호 (청당동)",127.15491020716324,36.78255105932202,도로명 주소,청룡동,
"충청남도 천안시 동남구 청수11로 35, 7~8층 (청당동)",gimi9,ok,"충청남도 천안시 동남구 청수11로 35, 7~8층 (청당동)",127.15608468032848,36.783059284582485,도로명 주소,청룡동,
충청남도 천안시 동남구 청수14로 21,gimi9,ok,충청남도 천안시 동남구 청수14로 21,127.14878918156796,36.78543588159371,도로명 주소,청룡동,
충청남도 천안시 동남구 청수14로 99,gimi9,ok,충청남도 천안시 동남구 청수14로 99,127.15673250564072,36.7860630545604,도로명 주소,청룡동,
충청남도 천안시 동남구 청수16로 5-10,gimi9,ok,충청남도 천안시 동남구 청수16로 5-10,127.15634748321122,36.78946048710519,도로명 주소,청룡동,
"충청남도 천안시 동남구 청수5로 10, 3층 304호 (청당동)",gimi9,ok,"충청남도 천안시 동남구 청수5로 10, 3층 304호 (청당동)",127.15544196588766,36.783931851801626,도로명 주소,청룡동,
충청남도 천안시 동남구 청수6로 83,gimi9,ok,충청남도 천안시 동남구 청수6로 83,127.15552568176,36.78776334553462,도로명 주소,청룡동,
충청남도 천안시 동남구 청수7로 30-15,gimi9,ok,충청남도 천안시 동남구 청수7로 30-15,127.1604106597724,36.78559583224642,도로명 주소,청룡동,
"충청남도 천안시 동남구 청수7로 43, 2층 202호 (청당동, 영재빌딩)",gimi9,ok,"충청남도 천안시 동남구 청수7로 43, 2층 202호 (청당동, 영재빌딩)",127.158793998039,36.78622223568535,도로명 주소,청룡동,
충청남도 천안시 동남구 청수7로 6,gimi9,ok,충청남도 천안시 동남구 청수7로 6,127.16124992627772,36.78334454710102,도로명 주소,청룡동,
충청남도 천안시 동남구 청수동 254,gimi9,ok,충청남도 천안시 동남구 청수동 254,127.14823639484337,36.788679542031296,지번 주소,청룡동,
충청남도 천안시 동남구 청수동 264,gimi9,ok,충청남도 천안시 동남구 청수동 264,127.15563988983229,36.78979198472776,도로명 주소,청룡동,
충청남도 천안시 동남구 청수동 270,gimi9,ok,충청남도 천안시 동남구 청수동 270,127.1504164875122,36.78741489583189,도로명 주소,청룡동,
충청남도 천안시 동남구 청수동 330,gimi9,ok,충청남도 천안시 동남구 청수동 330,127.15347158777227,36.78844249684989,지번 주소,청룡동,
충청남도 천안시 동남구 청수로 126,gimi9,ok,충청남도 천안시 동남구 청수로 126,127.1579251458173,36.7925841214173,도로명 주소,청룡동,
충청남도 천안시 동남구 청수로 35-3,gimi9,ok,충청남도 천안시 동남구 청수로 35-3,127.15066440087554,36.7895881677158,도로명 주소,청룡동,
충청남도 천안시 동남구 청수로 82-46,gimi9,ok,충청남도 천안시 동남구 청수로 82-46,127.1598140569945,36.79125536302087,도로명 주소,청룡동,
"충청남도 천안시 동남구 충무로 158-35, 5층 501호 (신방동, 럭스프라자)",gimi9,ok,"충청남도 천안시 동남구 충무로 158-35, 5층 501호 (신방동, 럭스프라자)",127.12607802935077,36.79102788858523,도로명 주소,신방동,
"충청남도 천안시 동남구 충무로 412-27, 2층(영성동)",gimi9,ok,"충청남도 천안시 동남구 충무로 412-27, 2층(영성동)",127.15120188392244,36.79711701646757,도로명 주소,중앙동,
"충청남도 천안시 동남구 충무로 422, 2층 (영성동)",gimi9,ok,"충청남도 천안시 동남구 충무로 422, 2층 (영성동)",127.1521167462197,36.79806623831119,도로명 주소,중앙동,
"충청남도 천안시 동남구 충무로 513, 1층 101호 (원성동)",gimi9,ok,"충청남도 천안시 동남구 충무로 513, 1층 101호 (원성동)",127.16226836792912,36.79898795201675,도로명 주소,원성2동,
"충청남도 천안시 동남구 충절로 128, 3층 302호 (원성동, 원흥빌딩)",gimi9,ok,"충청남도 천안시 동남구 충절로 128, 3층 302호 (원성동, 원흥빌딩)",127.15827378248842,36.80745935903239,도로명 주소,원성1동,
충청남도 천안시 동남구 충절로 130,gimi9,ok,충청남도 천안시 동남구 충절로 130,127.15834224747724,36.807189115426446,도로명 주소,원성1동,
"충청남도 천안시 동남구 충절로 132, 2층 (원성동)",gimi9,ok,"충청남도 천안시 동남구 충절로 132, 2층 (원성동)",127.15838769030296,36.80705402580519,도로명 주소,원성1동,
"충청남도 천안시 동남구 충절로 135, 1층(원성동)",gimi9,ok,"충청남도 천안시 동남구 충절로 135, 1층(원성동)",127.1589159839342,36.80674002839454,도로명 주소,원성1동,
"충청남도 천안시 동남구 충절로 14, 8층 807호 (신부동, 천안현대오피스텔)",gimi9,ok,"충청남도 천안시 동남구 충절로 14, 8층 807호 (신부동, 천안현대오피스텔)",127.15792497570791,36.817825225573806,도로명 주소,신안동,
"충청남도 천안시 동남구 충절로 149, 1층 (원성동)",gimi9,ok,"충청남도 천안시 동남구 충절로 149, 1층 (원성동)",127.15903296486998,36.80564057299449,도로명 주소,원성2동,
"충청남도 천안시 동남구 충절로 23-1, 3,4,5층 (신부동)",gimi9,ok,"충청남도 천안시 동남구 충절로 23-1, 3,4,5층 (신부동)",127.15864631204956,36.81697992018911,도로명 주소,신안동,
충청남도 천안시 동남구 충절로 262(구성동),gimi9,ok,충청남도 천안시 동남구 충절로 262(구성동),127.15924644950158,36.79540951435353,도로명 주소,청룡동,
충청남도 천안시 동남구 충절로 263(구성동),gimi9,ok,충청남도 천안시 동남구 충절로 263(구성동),127.15979608026444,36.795320940752106,도로명 주소,청룡동,
"충청남도 천안시 동남구 충절로 282, 203호 (구성동)",gimi9,ok,"충청남도 천안시 동남구 충절로 282, 203호 (구성동)",127.16001609876724,36.79372596849559,도로명 주소,청룡동,
"충청남도 천안시 동남구 충절로 311, 109호(구성동)",gimi9,ok,"충청남도 천안시 동남구 충절로 311, 109호(구성동)",127.16249013173694,36.79187598619108,도로명 주소,청룡동,
충청남도 천안시 동남구 충절로 340,gimi9,ok,충청남도 천안시 동남구 충절로 340,127.16338493471176,36.78974203710874,도로명 주소,청룡동,
충청남도 천안시 동남구 충절로 363-11,gimi9,ok,충청남도 천안시 동남구 충절로 363-11,127.16690775881926,36.78894063065399,도로명 주소,청룡동,
충청남도 천안시 동남구 충절로 407(삼룡동),gimi9,ok,충청남도 천안시 동남구 충절로 407(삼룡동),127.1687293032355,36.78497924483271,도로명 주소,청룡동,
충청남도 천안시 동남구 충절로 417-4 (삼룡동),gimi9,ok,충청남도 천안시 동남구 충절로 417-4 (삼룡동),127.16986387114883,36.78436939844417,도로명 주소,청룡동,
충청남도 천안시 동남구 충절로 535-18 (삼룡동),gimi9,ok,충청남도 천안시 동남구 충절로 535-18 (삼룡동),127.1789844781908,36.77683100864784,도로명 주소,청룡동,
충청남도 천안시 동남구 충절로 535-31(고려신학대학원 내),gimi9,ok,충청남도 천안시 동남구 충절로 535-31(고려신학대학원 내),127.18067851176517,36.77637581659349,도로명 주소,청룡동,
충청남도 천안시 동남구 충절로 535-4 (삼룡동),gimi9,ok,충청남도 천안시 동남구 충절로 535-4 (삼룡동),127.17834648180408,36.77664899078432,도로명 주소,청룡동,
충청남도 천안시 동남구 충절로 90,gimi9,ok,충청남도 천안시 동남구 충절로 90,127.15692218844325,36.8113858653527,도로명 주소,원성1동,
충청남도 천안시 동남구 충절로91,gimi9,ok,충청남도 천안시 동남구 충절로91,127.15970618342828,36.81057352912868,도로명 주소,원성1동,
충청남도 천안시 동남구 충절로91(원성동460-1),gimi9,ok,충청남도 천안시 동남구 충절로91(원성동460-1),127.15970618342828,36.81057352912868,도로명 주소,원성1동,
충청남도 천안시 동남구 큰시장길 17(사직동),gimi9,ok,충청남도 천안시 동남구 큰시장길 17(사직동),127.14856809915985,36.80194113541319,도로명 주소,중앙동,
"충청남도 천안시 동남구 큰시장길 37, 2층 (영성동, 파고다아파트)",gimi9,ok,"충청남도 천안시 동남구 큰시장길 37, 2층 (영성동, 파고다아파트)",127.15095442791696,36.80224564726603,도로명 주소,중앙동,
충청남도 천안시 동남구 큰재빼기길 28(오룡동),gimi9,ok,충청남도 천안시 동남구 큰재빼기길 28(오룡동),127.14915292283622,36.80398018000593,도로명 주소,중앙동,
충청남도 천안시 동남구 태조산길 103-5 (유량동),gimi9,ok,충청남도 천안시 동남구 태조산길 103-5 (유량동),127.1748387277247,36.81382509135059,도로명 주소,원성1동,
충청남도 천안시 동남구 태조산길 261,gimi9,ok,충청남도 천안시 동남구 태조산길 261,127.19205424015055,36.82361577403817,도로명 주소,원성1동,
충청남도 천안시 동남구 태조산길 266 (유량동),gimi9,ok,충청남도 천안시 동남구 태조산길 266 (유량동),127.18834425695948,36.82046900555902,도로명 주소,원성1동,
충청남도 천안시 동남구 터미널3길 21(신부동),gimi9,ok,충청남도 천안시 동남구 터미널3길 21(신부동),127.15859345785849,36.821306804923374,도로명 주소,신안동,
충청남도 천안시 동남구 터미널3길 23(신부동),gimi9,ok,충청남도 천안시 동남구 터미널3길 23(신부동),127.158592897263,36.82143300849691,도로명 주소,신안동,
충청남도 천안시 동남구 터미널5길 30,gimi9,ok,충청남도 천안시 동남구 터미널5길 30,127.15982361144616,36.82204051760116,도로명 주소,신안동,
"충청남도 천안시 동남구 터미널7길 32, 1층(신부동)",gimi9,ok,"충청남도 천안시 동남구 터미널7길 32, 1층(신부동)",127.15970542044263,36.8208772887855,도로명 주소,신안동,
충청남도 천안시 동남구 터미널8길 12(신부동),gimi9,ok,충청남도 천안시 동남구 터미널8길 12(신부동),127.15859113536884,36.82182964828192,도로명 주소,신안동,
충청남도 천안시 동남구 통정10로 43-12 (신방동),gimi9,ok,충청남도 천안시 동남구 통정10로 43-12 (신방동),127.13267635724812,36.772946913786335,도로명 주소,신방동,
충청남도 천안시 동남구 통정5로 7 (신방동),gimi9,ok,충청남도 천안시 동남구 통정5로 7 (신방동),127.12909953872332,36.771078783542,도로명 주소,신방동,
"충청남도 천안시 동남구 통정5로 89, 1층(신방동)",gimi9,ok,"충청남도 천안시 동남구 통정5로 89, 1층(신방동)",127.13541630918547,36.77646206815025,도로명 주소,신방동,
충청남도 천안시 동남구 통정6로 46,gimi9,ok,충청남도 천안시 동남구 통정6로 46,127.1383909466377,36.77539839558383,도로명 주소,신방동,
충청남도 천안시 동남구 통정6로 49,gimi9,ok,충청남도 천안시 동남구 통정6로 49,127.13729000998596,36.77598100082531,도로명 주소,신방동,
충청남도 천안시 동남구 통정8로 5-23,gimi9,ok,충청남도 천안시 동남구 통정8로 5-23,127.12914979045536,36.77227789834338,도로명 주소,신방동,
"충청남도 천안시 동남구 통정9로 32, 401호 (신방동)",gimi9,ok,"충청남도 천안시 동남구 통정9로 32, 401호 (신방동)",127.12927005509236,36.77290028895893,도로명 주소,신방동,
충청남도 천안시 동남구 통정9로 58,gimi9,ok,충청남도 천안시 동남구 통정9로 58,127.13092642501304,36.77099431771921,도로명 주소,신방동,
"충청남도 천안시 동남구 통정9로 76, 201호 (신방동)",gimi9,ok,"충청남도 천안시 동남구 통정9로 76, 201호 (신방동)",127.13273403581974,36.77025168935852,도로명 주소,신방동,
충청남도 천안시 동남구 풍세로 801-28,gimi9,ok,충청남도 천안시 동남구 풍세로 801-28,127.14025938120092,36.78083091946756,도로명 주소,신방동,
충청남도 천안시 동남구 풍세로696(구룡동),gimi9,ok,충청남도 천안시 동남구 풍세로696(구룡동),127.13808068060528,36.772269343478456,도로명 주소,청룡동,
충청남도 천안시 동남구 풍세면 광풍로 1021-11,gimi9,ok,충청남도 천안시 동남구 풍세면 광풍로 1021-11,127.11539143319476,36.7157387100885,도로명 주소,풍세면,
충청남도 천안시 동남구 풍세면 남관리 650-24,gimi9,ok,충청남도 천안시 동남구 풍세면 남관리 650-24,127.11149029558476,36.75885269966015,도로명 주소,풍세면,
충청남도 천안시 동남구 풍세면 미죽2길 7,gimi9,ok,충청남도 천안시 동남구 풍세면 미죽2길 7,127.15142649201516,36.73761140430088,도로명 주소,풍세면,
충청남도 천안시 동남구 풍세면 미죽3길 7-6,gimi9,ok,충청남도 천안시 동남구 풍세면 미죽3길 7-6,127.15239787848913,36.73829035396569,도로명 주소,풍세면,
충청남도 천안시 동남구 풍세면 미죽로 33-12,gimi9,ok,충청남도 천안시 동남구 풍세면 미죽로 33-12,127.12981924879018,36.74956284003442,도로명 주소,풍세면,
충청남도 천안시 동남구 풍세면 미죽로 33-12 (3층),gimi9,ok,충청남도 천안시 동남구 풍세면 미죽로 33-12 (3층),127.12981924879018,36.74956284003442,도로명 주소,풍세면,
충청남도 천안시 동남구 풍세면 미죽로 410,gimi9,ok,충청남도 천안시 동남구 풍세면 미죽로 410,127.15939904758784,36.743187591724805,도로명 주소,풍세면,
"충청남도 천안시 동남구 풍세면 미죽로 9, 1층",gimi9,ok,"충청남도 천안시 동남구 풍세면 미죽로 9, 1층",127.12782519903364,36.7518914415055,도로명 주소,풍세면,
충청남도 천안시 동남구 풍세면 보성리 347-4,gimi9,ok,충청남도 천안시 동남구 풍세면 보성리 347-4,127.11975241653968,36.7351255042201,도로명 주소,풍세면,
충청남도 천안시 동남구 풍세면 보성리 818,gimi9,ok,충청남도 천안시 동남구 풍세면 보성리 818,127.09605899139116,36.72540163628941,지번 주소,풍세면,
충청남도 천안시 동남구 풍세면 상정1길 3,gimi9,ok,충청남도 천안시 동남구 풍세면 상정1길 3,127.11888817526813,36.72189805004278,도로명 주소,풍세면,
충청남도 천안시 동남구 풍세면 용정길 8-7,gimi9,ok,충청남도 천안시 동남구 풍세면 용정길 8-7,127.10139182958548,36.744467824054944,도로명 주소,풍세면,
충청남도 천안시 동남구 풍세면 용정리 970,gimi9,ok,충청남도 천안시 동남구 풍세면 용정리 970,127.10561513280643,36.733456837387074,도로명 주소,풍세면,
충청남도 천안시 동남구 풍세면 용정리 989,gimi9,ok,충청남도 천안시 동남구 풍세면 용정리 989,127.1005534601932,36.73332276485589,지번 주소,풍세면,
충청남도 천안시 동남구 풍세면 통미3길 10,gimi9,ok,충청남도 천안시 동남구 풍세면 통미3길 10,127.12437075537424,36.75501771968547,도로명 주소,풍세면,
충청남도 천안시 동남구 풍세면 풍세2길 5,gimi9,ok,충청남도 천안시 동남구 풍세면 풍세2길 5,127.117626688175,36.72562612820576,도로명 주소,풍세면,
충청남도 천안시 동남구 풍세면 풍세로 502,gimi9,ok,충청남도 천안시 동남구 풍세면 풍세로 502,127.12816577538428,36.75792337263876,도로명 주소,풍세면,
충청남도 천안시 동남구 풍세면 하정길 31-3,gimi9,ok,충청남도 천안시 동남구 풍세면 하정길 31-3,127.11747607750848,36.71986519126363,도로명 주소,풍세면,
"충청남도 천안시 서북구 1공단1길 13, 4층 404호 (두정동, 드림타워)",gimi9,ok,"충청남도 천안시 서북구 1공단1길 13, 4층 404호 (두정동, 드림타워)",127.14649226980984,36.82919531971167,도로명 주소,부성1동,
"충청남도 천안시 서북구 1공단1길 52, 4층 (두정동, 센트하임프라자)",gimi9,ok,"충청남도 천안시 서북구 1공단1길 52, 4층 (두정동, 센트하임프라자)",127.14796903387963,36.832399897918826,도로명 주소,부성1동,
"충청남도 천안시 서북구 개목6길 25, 1층 (성정동)",gimi9,ok,"충청남도 천안시 서북구 개목6길 25, 1층 (성정동)",127.13409554842136,36.816194753735765,도로명 주소,성정1동,
"충청남도 천안시 서북구 개목8길 31, 1층(성정1동)",gimi9,ok,"충청남도 천안시 서북구 개목8길 31, 1층(성정1동)",127.13404133462728,36.81580695664525,도로명 주소,성정1동,
"충청남도 천안시 서북구 검은들1길 12, 7~9층 (불당동)",gimi9,ok,"충청남도 천안시 서북구 검은들1길 12, 7~9층 (불당동)",127.11005125483813,36.81070954641249,도로명 주소,불당1동,
"충청남도 천안시 서북구 검은들1길 20, 601,801호 (불당동)",gimi9,ok,"충청남도 천안시 서북구 검은들1길 20, 601,801호 (불당동)",127.11019393565763,36.81131399624964,도로명 주소,불당1동,
"충청남도 천안시 서북구 검은들3길 38, 102호(불당동)",gimi9,ok,"충청남도 천안시 서북구 검은들3길 38, 102호(불당동)",127.10889340521445,36.81131874088164,도로명 주소,불당1동,
충청남도 천안시 서북구 검은들3길 60 (불당동),gimi9,ok,충청남도 천안시 서북구 검은들3길 60 (불당동),127.11017882604358,36.80987160137612,도로명 주소,불당1동,
충청남도 천안시 서북구 공대길 10(신당동),gimi9,ok,충청남도 천안시 서북구 공대길 10(신당동),127.1543836138592,36.84985300170846,도로명 주소,부성1동,
충청남도 천안시 서북구 공대길 37,gimi9,ok,충청남도 천안시 서북구 공대길 37,127.15252799675272,36.84844131275744,도로명 주소,부성1동,
충청남도 천안시 서북구 공대길 45-9,gimi9,ok,충청남도 천안시 서북구 공대길 45-9,127.15013369400586,36.84710914204587,도로명 주소,부성1동,
충청남도 천안시 서북구 공원로 140,gimi9,ok,충청남도 천안시 서북구 공원로 140,127.09816507443747,36.79613833664901,도로명 주소,불당1동,
"충청남도 천안시 서북구 공원로 196, 6층 (불당동)",gimi9,ok,"충청남도 천안시 서북구 공원로 196, 6층 (불당동)",127.10142628878718,36.79842100812606,도로명 주소,불당1동,
"충청남도 천안시 서북구 공원로 219, 2층 214~221호 (불당동)",gimi9,ok,"충청남도 천안시 서북구 공원로 219, 2층 214~221호 (불당동)",127.10362548682852,36.80017720421513,도로명 주소,불당1동,
충청남도 천안시 서북구 과수원길 27,gimi9,ok,충청남도 천안시 서북구 과수원길 27,127.14213971802,36.84156840129456,도로명 주소,부성2동,
충청남도 천안시 서북구 광장로 245,gimi9,ok,충청남도 천안시 서북구 광장로 245,127.11095108662109,36.80126512400336,도로명 주소,불당1동,
충청남도 천안시 서북구 나사렛대길 22-4(쌍용동),gimi9,ok,충청남도 천안시 서북구 나사렛대길 22-4(쌍용동),127.11895671855405,36.798631712238645,도로명 주소,쌍용2동,
"충청남도 천안시 서북구 노태산로 10, 1층 101호 (두정동, 한양프라자)",gimi9,ok,"충청남도 천안시 서북구 노태산로 10, 1층 101호 (두정동, 한양프라자)",127.12746812204873,36.82568463010233,도로명 주소,부성2동,
충청남도 천안시 서북구 노태산로 133,gimi9,ok,충청남도 천안시 서북구 노태산로 133,127.12817910247904,36.838649895049045,도로명 주소,부성2동,
"충청남도 천안시 서북구 늘푸른1길 18-5, 201호(두정동)",gimi9,ok,"충청남도 천안시 서북구 늘푸른1길 18-5, 201호(두정동)",127.12986075537252,36.82714345929394,도로명 주소,부성2동,
"충청남도 천안시 서북구 늘푸른3길 7-1, 201호 (두정동)",gimi9,ok,"충청남도 천안시 서북구 늘푸른3길 7-1, 201호 (두정동)",127.12775940310227,36.8257396301803,도로명 주소,부성2동,
"충청남도 천안시 서북구 늘푸른3길 7-1, 201호 ,301호 (두정동)",gimi9,ok,"충청남도 천안시 서북구 늘푸른3길 7-1, 201호 ,301호 (두정동)",127.12775940310227,36.8257396301803,도로명 주소,부성2동,
"충청남도 천안시 서북구 늘푸른3길 7-1, 401호 (두정동)",gimi9,ok,"충청남도 천안시 서북구 늘푸른3길 7-1, 401호 (두정동)",127.12775940310227,36.8257396301803,도로명 주소,부성2동,
"충청남도 천안시 서북구 늘푸른5길 22, 102호(두정동)",gimi9,ok,"충청남도 천안시 서북구 늘푸른5길 22, 102호(두정동)",127.12964683165517,36.8273230859489,도로명 주소,부성2동,
충청남도 천안시 서북구 늘푸른6길 41,gimi9,ok,충청남도 천안시 서북구 늘푸른6길 41,127.1318594048199,36.82893456259245,도로명 주소,부성2동,
충청남도 천안시 서북구 다가말 2길 26,gimi9,ok,충청남도 천안시 서북구 다가말 2길 26,127.13477708189129,36.79781593448114,도로명 주소,쌍용1동,
"충청남도 천안시 서북구 동서대로 110-21, 3층 (성정동)",gimi9,ok,"충청남도 천안시 서북구 동서대로 110-21, 3층 (성정동)",127.13504349673708,36.82434691137743,도로명 주소,성정2동,
"충청남도 천안시 서북구 동서대로 110-21, B동 201호 (성정동, 은성빌딩)",gimi9,ok,"충청남도 천안시 서북구 동서대로 110-21, B동 201호 (성정동, 은성빌딩)",127.13504349673708,36.82434691137743,도로명 주소,성정2동,
"충청남도 천안시 서북구 동서대로 110-21, B동 301호 (성정동, 은성빌딩)",gimi9,ok,"충청남도 천안시 서북구 동서대로 110-21, B동 301호 (성정동, 은성빌딩)",127.13504349673708,36.82434691137743,도로명 주소,성정2동,
충청남도 천안시 서북구 동서대로 110-23 (성정동),gimi9,ok,충청남도 천안시 서북구 동서대로 110-23 (성정동),127.1352803389159,36.82405916942712,도로명 주소,성정2동,
"충청남도 천안시 서북구 동서대로 135, 5층 (성정동, 에스앤제이빌딩)",gimi9,ok,"충청남도 천안시 서북구 동서대로 135, 5층 (성정동, 에스앤제이빌딩)",127.13837665990354,36.826123965363465,도로명 주소,성정2동,
"충청남도 천안시 서북구 동서대로 17-13, 1층 102호 (백석동)",gimi9,ok,"충청남도 천안시 서북구 동서대로 17-13, 1층 102호 (백석동)",127.12481266416476,36.82525259274715,도로명 주소,백석동,
충청남도 천안시 서북구 동서대로110-24,gimi9,ok,충청남도 천안시 서북구 동서대로110-24,127.13467368173671,36.82430070251603,도로명 주소,성정2동,
충청남도 천안시 서북구 두정고1길 25,gimi9,ok,충청남도 천안시 서북구 두정고1길 25,127.12958216270316,36.83608510703295,도로명 주소,부성2동,
"충청남도 천안시 서북구 두정고1길 9, 502동 504호 (두정동, 천안두정5차푸르지오)",gimi9,ok,"충청남도 천안시 서북구 두정고1길 9, 502동 504호 (두정동, 천안두정5차푸르지오)",127.12901948489473,36.83416323711044,도로명 주소,부성2동,
충청남도 천안시 서북구 두정고2길 13,gimi9,ok,충청남도 천안시 서북구 두정고2길 13,127.13019140261984,36.835329774988864,도로명 주소,부성2동,
충청남도 천안시 서북구 두정동 1078번지 일원,gimi9,ok,충청남도 천안시 서북구 두정동 1078번지 일원,127.13705373531327,36.83793811961621,도로명 주소,부성2동,
충청남도 천안시 서북구 두정동 1205번지,gimi9,ok,충청남도 천안시 서북구 두정동 1205번지,127.14023589687108,36.83617190992849,도로명 주소,부성1동,
충청남도 천안시 서북구 두정동 1560번지,gimi9,ok,충청남도 천안시 서북구 두정동 1560번지,127.14472729755978,36.83742042004831,지번 주소,부성1동,
충청남도 천안시 서북구 두정동 1689번지 일원,gimi9,ok,충청남도 천안시 서북구 두정동 1689번지 일원,127.15080173433944,36.83833086489007,지번 주소,부성1동,
충청남도 천안시 서북구 두정동 1696번지,gimi9,ok,충청남도 천안시 서북구 두정동 1696번지,127.14933778692094,36.83718169819954,지번 주소,부성1동,
충청남도 천안시 서북구 두정동 1843번지 일원,gimi9,ok,충청남도 천안시 서북구 두정동 1843번지 일원,127.13119583179729,36.83868633532126,도로명 주소,부성2동,
충청남도 천안시 서북구 두정동 2046번지,gimi9,ok,충청남도 천안시 서북구 두정동 2046번지,127.14993673541154,36.83126084862198,지번 주소,부성1동,
충청남도 천안시 서북구 두정동 238번지,gimi9,not_found,충청남도 천안시 서북구 두정동 238번지,127.1422522291918,36.83185998529338,법정동 대표주소,nan,법정동 대표주소: 두정동 다음 찾을 수 없음: 238 번지...
충청남도 천안시 서북구 두정동 397-1번지,gimi9,ok,충청남도 천안시 서북구 두정동 397-1번지,127.15227752586514,36.83439579638174,지번 주소,부성1동,
충청남도 천안시 서북구 두정동 615번지,gimi9,ok,충청남도 천안시 서북구 두정동 615번지,127.12860886184632,36.82631020879411,지번 주소,부성2동,
충청남도 천안시 서북구 두정동 681번지,gimi9,ok,충청남도 천안시 서북구 두정동 681번지,127.13035020517944,36.83262588012236,지번 주소,부성2동,
충청남도 천안시 서북구 두정동 869번지,gimi9,ok,충청남도 천안시 서북구 두정동 869번지,127.13602775844964,36.83197631323236,도로명 주소,부성2동,
충청남도 천안시 서북구 두정동 899번지,gimi9,ok,충청남도 천안시 서북구 두정동 899번지,127.13377217319918,36.832293913755656,도로명 주소,부성2동,
충청남도 천안시 서북구 두정동 985번지,gimi9,ok,충청남도 천안시 서북구 두정동 985번지,127.13527183468484,36.83530039558974,도로명 주소,부성2동,
"충청남도 천안시 서북구 두정로 203, 106호 (두정동)",gimi9,ok,"충청남도 천안시 서북구 두정로 203, 106호 (두정동)",127.13960701797744,36.83396142095109,도로명 주소,부성1동,
"충청남도 천안시 서북구 두정로 210, 6층 (두정동, 서올빌딩)",gimi9,ok,"충청남도 천안시 서북구 두정로 210, 6층 (두정동, 서올빌딩)",127.14021550949846,36.83334125421472,도로명 주소,부성1동,
"충청남도 천안시 서북구 두정로 212, 펜타폴리스 2차 107호(두정동)",gimi9,ok,"충청남도 천안시 서북구 두정로 212, 펜타폴리스 2차 107호(두정동)",127.14054080935486,36.83332420887681,도로명 주소,부성1동,
충청남도 천안시 서북구 두정로 263(두정동),gimi9,ok,충청남도 천안시 서북구 두정로 263(두정동),127.14614764214016,36.833413144947365,도로명 주소,부성1동,
충청남도 천안시 서북구 두정로 271(두정동),gimi9,ok,충청남도 천안시 서북구 두정로 271(두정동),127.14700067798186,36.83325341722993,도로명 주소,부성1동,
충청남도 천안시 서북구 두정역동3길 3,gimi9,ok,충청남도 천안시 서북구 두정역동3길 3,127.1508575756157,36.83591510805242,도로명 주소,부성1동,
충청남도 천안시 서북구 두정역서1길 10,gimi9,ok,충청남도 천안시 서북구 두정역서1길 10,127.14691876683736,36.83643533923575,도로명 주소,부성1동,
충청남도 천안시 서북구 두정역서4길 23 (두정동),gimi9,ok,충청남도 천안시 서북구 두정역서4길 23 (두정동),127.14808299860358,36.836898537150496,도로명 주소,부성1동,
"충청남도 천안시 서북구 두정중11길 14 (두정동, 한길프라자 B동 2층)",gimi9,ok,"충청남도 천안시 서북구 두정중11길 14 (두정동, 한길프라자 B동 2층)",127.13982498079268,36.83770315243043,도로명 주소,부성1동,
"충청남도 천안시 서북구 두정중11길 14, 4,5층 (두정동, 한길프라자B동)",gimi9,ok,"충청남도 천안시 서북구 두정중11길 14, 4,5층 (두정동, 한길프라자B동)",127.13982498079268,36.83770315243043,도로명 주소,부성1동,
충청남도 천안시 서북구 두정중1길 26,gimi9,ok,충청남도 천안시 서북구 두정중1길 26,127.13957634198243,36.835719180877376,도로명 주소,부성1동,
충청남도 천안시 서북구 두정중5길 22,gimi9,ok,충청남도 천안시 서북구 두정중5길 22,127.1440188162922,36.8354170531585,도로명 주소,부성1동,
"충청남도 천안시 서북구 두정중5길 54-8, 1층 (두정동)",gimi9,ok,"충청남도 천안시 서북구 두정중5길 54-8, 1층 (두정동)",127.14462323528274,36.838096206090775,도로명 주소,부성1동,
충청남도 천안시 서북구 미라10길 21,gimi9,ok,충청남도 천안시 서북구 미라10길 21,127.13052127335304,36.804040948023925,도로명 주소,쌍용1동,
충청남도 천안시 서북구 미라11길 16 (쌍용동),gimi9,ok,충청남도 천안시 서북구 미라11길 16 (쌍용동),127.12880400530256,36.8044773196567,도로명 주소,쌍용1동,
충청남도 천안시 서북구 미라14길 20(쌍용동),gimi9,ok,충청남도 천안시 서북구 미라14길 20(쌍용동),127.13015470542308,36.80567146447362,도로명 주소,쌍용1동,
"충청남도 천안시 서북구 미라15길 23, 109호 (쌍용동, 대우타워아파트 상가동)",gimi9,ok,"충청남도 천안시 서북구 미라15길 23, 109호 (쌍용동, 대우타워아파트 상가동)",127.13217764357876,36.80695782153274,도로명 주소,쌍용1동,
충청남도 천안시 서북구 미라16길 38-7 (쌍용동),gimi9,ok,충청남도 천안시 서북구 미라16길 38-7 (쌍용동),127.12719606655652,36.80548193348534,도로명 주소,쌍용3동,
충청남도 천안시 서북구 미라16길 8-10 (쌍용동),gimi9,ok,충청남도 천안시 서북구 미라16길 8-10 (쌍용동),127.12824434951848,36.80893783307592,도로명 주소,쌍용3동,
충청남도 천안시 서북구 미라1길 48,gimi9,ok,충청남도 천안시 서북구 미라1길 48,127.12945415182884,36.80681414701329,도로명 주소,쌍용1동,
충청남도 천안시 서북구 미라2길 13,gimi9,ok,충청남도 천안시 서북구 미라2길 13,127.12903556345988,36.80062877542066,도로명 주소,쌍용1동,
충청남도 천안시 서북구 미라2길 18-4(쌍용동),gimi9,ok,충청남도 천안시 서북구 미라2길 18-4(쌍용동),127.12948342407344,36.80073834762546,도로명 주소,쌍용1동,
"충청남도 천안시 서북구 미라2길 19, 305호 (쌍용동, 광명아파트 상가)",gimi9,ok,"충청남도 천안시 서북구 미라2길 19, 305호 (쌍용동, 광명아파트 상가)",127.12742082193589,36.80074091882533,도로명 주소,쌍용1동,
"충청남도 천안시 서북구 미라2길 19, 상가동 207호 (쌍용동)",gimi9,ok,"충청남도 천안시 서북구 미라2길 19, 상가동 207호 (쌍용동)",127.12742082193589,36.80074091882533,도로명 주소,쌍용1동,
충청남도 천안시 서북구 미라2길 26-1(쌍용동),gimi9,ok,충청남도 천안시 서북구 미라2길 26-1(쌍용동),127.1296911976537,36.80182075611396,도로명 주소,쌍용1동,
충청남도 천안시 서북구 미라3길 27(쌍용동),gimi9,ok,충청남도 천안시 서북구 미라3길 27(쌍용동),127.13074352620356,36.80211249764122,도로명 주소,쌍용1동,
충청남도 천안시 서북구 미라3길 5,gimi9,ok,충청남도 천안시 서북구 미라3길 5,127.1304503913056,36.8001283578466,도로명 주소,쌍용1동,
"충청남도 천안시 서북구 미라3길 60, 102호 (쌍용동)",gimi9,ok,"충청남도 천안시 서북구 미라3길 60, 102호 (쌍용동)",127.13163817574936,36.8049008066514,도로명 주소,쌍용1동,
충청남도 천안시 서북구 미라7길13(쌍용동),gimi9,ok,충청남도 천안시 서북구 미라7길13(쌍용동),127.12946266045168,36.80272151200086,도로명 주소,쌍용1동,
"충청남도 천안시 서북구 미라8길 15, 101호(쌍용동)",gimi9,ok,"충청남도 천안시 서북구 미라8길 15, 101호(쌍용동)",127.1292470660354,36.80326172065123,도로명 주소,쌍용1동,
충청남도 천안시 서북구 백석1길 56,gimi9,ok,충청남도 천안시 서북구 백석1길 56,127.12184874394832,36.81914930403656,도로명 주소,백석동,
"충청남도 천안시 서북구 백석3로 131, 401, 701호 (백석동, 빨간빌딩)",gimi9,ok,"충청남도 천안시 서북구 백석3로 131, 401, 701호 (백석동, 빨간빌딩)",127.12445862131648,36.82197915969167,도로명 주소,백석동,
"충청남도 천안시 서북구 백석3로 25, 1층(백석동)",gimi9,ok,"충청남도 천안시 서북구 백석3로 25, 1층(백석동)",127.1142333719608,36.82181120686589,도로명 주소,백석동,
충청남도 천안시 서북구 백석3로 98,gimi9,ok,충청남도 천안시 서북구 백석3로 98,127.1224932536724,36.82033227080034,도로명 주소,백석동,
"충청남도 천안시 서북구 백석4길 12, 203 (백석동, 거성캐슬B)",gimi9,ok,"충청남도 천안시 서북구 백석4길 12, 203 (백석동, 거성캐슬B)",127.12407130640634,36.82322195676486,도로명 주소,백석동,
"충청남도 천안시 서북구 백석4길 12, 3층 302호 (백석동, 거성캐슬B)",gimi9,ok,"충청남도 천안시 서북구 백석4길 12, 3층 302호 (백석동, 거성캐슬B)",127.12407130640634,36.82322195676486,도로명 주소,백석동,
"충청남도 천안시 서북구 백석4길 12, 701호 (백석동, 거성캐슬)",gimi9,ok,"충청남도 천안시 서북구 백석4길 12, 701호 (백석동, 거성캐슬)",127.12407130640634,36.82322195676486,도로명 주소,백석동,
충청남도 천안시 서북구 백석4길 23(백석동),gimi9,ok,충청남도 천안시 서북구 백석4길 23(백석동),127.12358288682636,36.8222107714798,도로명 주소,백석동,
충청남도 천안시 서북구 백석동 1001번지,gimi9,ok,충청남도 천안시 서북구 백석동 1001번지,127.1233672664924,36.82731237548382,지번 주소,백석동,
충청남도 천안시 서북구 백석동 1012번지,gimi9,ok,충청남도 천안시 서북구 백석동 1012번지,127.12149844586318,36.83108357269431,지번 주소,백석동,
충청남도 천안시 서북구 백석동 1071번지,gimi9,ok,충청남도 천안시 서북구 백석동 1071번지,127.1216650230449,36.8359700307815,지번 주소,백석동,
충청남도 천안시 서북구 백석동 1168번지,gimi9,ok,충청남도 천안시 서북구 백석동 1168번지,127.12123118994523,36.82615171655947,지번 주소,백석동,
충청남도 천안시 서북구 백석동 1218번지,gimi9,ok,충청남도 천안시 서북구 백석동 1218번지,127.1253897071363,36.835693356984336,지번 주소,백석동,
충청남도 천안시 서북구 백석동 771번지,gimi9,ok,충청남도 천안시 서북구 백석동 771번지,127.12629836431243,36.82411241183599,지번 주소,백석동,
충청남도 천안시 서북구 백석동 833번지,gimi9,ok,충청남도 천안시 서북구 백석동 833번지,127.1276089397983,36.82207921380535,지번 주소,백석동,
충청남도 천안시 서북구 백석동 895번지,gimi9,ok,충청남도 천안시 서북구 백석동 895번지,127.12237807368795,36.82095391571752,지번 주소,백석동,
충청남도 천안시 서북구 백석동 911번지,gimi9,ok,충청남도 천안시 서북구 백석동 911번지,127.1192946769702,36.8186723927622,지번 주소,백석동,
충청남도 천안시 서북구 백석동 916번지,gimi9,ok,충청남도 천안시 서북구 백석동 916번지,127.12012275821108,36.82127125940847,지번 주소,백석동,
충청남도 천안시 서북구 백석동 931번지,gimi9,ok,충청남도 천안시 서북구 백석동 931번지,127.11633361661134,36.82785780988444,지번 주소,백석동,
충청남도 천안시 서북구 백석동 948번지,gimi9,ok,충청남도 천안시 서북구 백석동 948번지,127.1250980885818,36.83110399195095,지번 주소,백석동,
충청남도 천안시 서북구 백석동 999번지,gimi9,ok,충청남도 천안시 서북구 백석동 999번지,127.1216021421536,36.82824429336496,지번 주소,백석동,
충청남도 천안시 서북구 백석동 백석현대아파트 113동 603호,gimi9,not_found,충청남도 천안시 서북구 백석동 백석현대아파트 113동 603호,127.11418755050283,36.826471626634536,행정동 대표주소,백석동,행정동 대표주소: 백석동 다음 찾을 수 없음: 백석현대아파트 113...
"충청남도 천안시 서북구 백석로 136, 113동 104호 (백석동, 백석현대아파트)",gimi9,ok,"충청남도 천안시 서북구 백석로 136, 113동 104호 (백석동, 백석현대아파트)",127.12579014095212,36.82025254520897,도로명 주소,백석동,
"충청남도 천안시 서북구 백석로 136, 113동 301호 (백석동, 현대아파트)",gimi9,ok,"충청남도 천안시 서북구 백석로 136, 113동 301호 (백석동, 현대아파트)",127.12579014095212,36.82025254520897,도로명 주소,백석동,
"충청남도 천안시 서북구 백석로 136, 2층 9호 (백석동, 현대아파트단지)",gimi9,ok,"충청남도 천안시 서북구 백석로 136, 2층 9호 (백석동, 현대아파트단지)",127.12579014095212,36.82025254520897,도로명 주소,백석동,
충청남도 천안시 서북구 백석로 17-17,gimi9,ok,충청남도 천안시 서북구 백석로 17-17,127.11463725505348,36.82400307425469,도로명 주소,백석동,
충청남도 천안시 서북구 백석로 17-5 (백석동),gimi9,ok,충청남도 천안시 서북구 백석로 17-5 (백석동),127.11396850911804,36.82319860209944,도로명 주소,백석동,
"충청남도 천안시 서북구 번영로 100, 6층(불당동)",gimi9,ok,"충청남도 천안시 서북구 번영로 100, 6층(불당동)",127.1085178741912,36.81020870236552,도로명 주소,불당1동,
충청남도 천안시 서북구 번영로 156,gimi9,ok,충청남도 천안시 서북구 번영로 156,127.11501658374232,36.81543137459186,도로명 주소,불당1동,
"충청남도 천안시 서북구 번영로 201, 3-4층 (불당동)",gimi9,ok,"충청남도 천안시 서북구 번영로 201, 3-4층 (불당동)",127.11008703079148,36.81912934853492,도로명 주소,불당2동,
"충청남도 천안시 서북구 번영로 201, 5층 (불당동)",gimi9,ok,"충청남도 천안시 서북구 번영로 201, 5층 (불당동)",127.11008703079148,36.81912934853492,도로명 주소,불당2동,
충청남도 천안시 서북구 번영로 208,gimi9,ok,충청남도 천안시 서북구 번영로 208,127.11246020300004,36.81989433668211,도로명 주소,불당1동,
충청남도 천안시 서북구 번영로 209,gimi9,ok,충청남도 천안시 서북구 번영로 209,127.1109356913976,36.81981724128822,도로명 주소,nan,
충청남도 천안시 서북구 번영로 306-8,gimi9,ok,충청남도 천안시 서북구 번영로 306-8,127.11480953021234,36.82766357497739,도로명 주소,백석동,
"충청남도 천안시 서북구 봉명로 12, 102호 (쌍용동)",gimi9,ok,"충청남도 천안시 서북구 봉명로 12, 102호 (쌍용동)",127.12977599973831,36.80749124957472,도로명 주소,쌍용1동,
충청남도 천안시 서북구 봉서5길 10(쌍용동),gimi9,ok,충청남도 천안시 서북구 봉서5길 10(쌍용동),127.13222744454768,36.8082651026188,도로명 주소,쌍용1동,
"충청남도 천안시 서북구 봉서5길 10, 104호(쌍용동)",gimi9,ok,"충청남도 천안시 서북구 봉서5길 10, 104호(쌍용동)",127.13222744454768,36.8082651026188,도로명 주소,쌍용1동,
"충청남도 천안시 서북구 봉서8길 8, 1층 101-1호 (쌍용동)",gimi9,ok,"충청남도 천안시 서북구 봉서8길 8, 1층 101-1호 (쌍용동)",127.13180470786156,36.809922493320286,도로명 주소,쌍용1동,
"충청남도 천안시 서북구 봉서8길 8, 1층 101-2호 (쌍용동)",gimi9,ok,"충청남도 천안시 서북구 봉서8길 8, 1층 101-2호 (쌍용동)",127.13180470786156,36.809922493320286,도로명 주소,쌍용1동,
충청남도 천안시 서북구 봉서산로 64,gimi9,ok,충청남도 천안시 서북구 봉서산로 64,127.11371887328968,36.80593472999513,도로명 주소,불당1동,
충청남도 천안시 서북구 봉서산샛길 67,gimi9,ok,충청남도 천안시 서북구 봉서산샛길 67,127.12142869374652,36.80426476366895,도로명 주소,쌍용3동,
"충청남도 천안시 서북구 봉정로 137, 1층(성정동)",gimi9,ok,"충청남도 천안시 서북구 봉정로 137, 1층(성정동)",127.141604411948,36.81446877722442,도로명 주소,성정1동,
"충청남도 천안시 서북구 봉정로 140, 3층(성정동)",gimi9,ok,"충청남도 천안시 서북구 봉정로 140, 3층(성정동)",127.14201919827828,36.81447904124156,도로명 주소,성정1동,
"충청남도 천안시 서북구 봉정로 168-1, 2층 (성정동)",gimi9,ok,"충청남도 천안시 서북구 봉정로 168-1, 2층 (성정동)",127.14259050740108,36.816995849847686,도로명 주소,성정1동,
"충청남도 천안시 서북구 봉정로 195, 405호 (성정동)",gimi9,ok,"충청남도 천안시 서북구 봉정로 195, 405호 (성정동)",127.14279146991332,36.81959267469387,도로명 주소,성정2동,
"충청남도 천안시 서북구 봉정로 397, 3층 (두정동, 대산빌딩)",gimi9,ok,"충청남도 천안시 서북구 봉정로 397, 3층 (두정동, 대산빌딩)",127.14539961069386,36.83754863195996,도로명 주소,부성1동,
충청남도 천안시 서북구 부대동 1035번지,gimi9,ok,충청남도 천안시 서북구 부대동 1035번지,127.1491748677624,36.84829624530354,지번 주소,부성1동,
충청남도 천안시 서북구 부대동 1051번지,gimi9,ok,충청남도 천안시 서북구 부대동 1051번지,127.15234115939406,36.84511437327476,지번 주소,부성1동,
충청남도 천안시 서북구 부대동 1067번지,gimi9,ok,충청남도 천안시 서북구 부대동 1067번지,127.14884067350184,36.84288648860628,지번 주소,부성1동,
충청남도 천안시 서북구 부대동 120,gimi9,ok,충청남도 천안시 서북구 부대동 120,127.152898400816,36.84475624500706,지번 주소,부성1동,
충청남도 천안시 서북구 부대중앙길 28 (부대동),gimi9,ok,충청남도 천안시 서북구 부대중앙길 28 (부대동),127.15098264169812,36.84047687723075,도로명 주소,부성1동,
충청남도 천안시 서북구 부대중앙길 51,gimi9,ok,충청남도 천안시 서북구 부대중앙길 51,127.15222851919305,36.84274319873891,도로명 주소,부성1동,
충청남도 천안시 서북구 부성1길 16,gimi9,ok,충청남도 천안시 서북구 부성1길 16,127.13727016329888,36.834855777581566,도로명 주소,부성2동,
충청남도 천안시 서북구 부성1길 19(두정동),gimi9,ok,충청남도 천안시 서북구 부성1길 19(두정동),127.1357527805168,36.83557230885991,도로명 주소,부성2동,
충청남도 천안시 서북구 부성1길 51-10,gimi9,ok,충청남도 천안시 서북구 부성1길 51-10,127.13499830745218,36.838580879991305,도로명 주소,부성2동,
충청남도 천안시 서북구 부성1길 83,gimi9,ok,충청남도 천안시 서북구 부성1길 83,127.13473561828329,36.83721886494694,도로명 주소,부성2동,
충청남도 천안시 서북구 불당 11로 51,gimi9,ok,충청남도 천안시 서북구 불당 11로 51,127.11213342213046,36.8046585018195,도로명 주소,불당1동,
"충청남도 천안시 서북구 불당10길 20, 1층 (불당동)",gimi9,ok,"충청남도 천안시 서북구 불당10길 20, 1층 (불당동)",127.1103464734022,36.803336519031525,도로명 주소,불당1동,
충청남도 천안시 서북구 불당11로 35,gimi9,ok,충청남도 천안시 서북구 불당11로 35,127.11067724918698,36.80442837719925,도로명 주소,불당1동,
충청남도 천안시 서북구 불당11로 63,gimi9,ok,충청남도 천안시 서북구 불당11로 63,127.11339312336034,36.803833253861455,도로명 주소,불당1동,
"충청남도 천안시 서북구 불당13길 6-1, 101호(불당동)",gimi9,ok,"충청남도 천안시 서북구 불당13길 6-1, 101호(불당동)",127.11515952036495,36.80479453768856,도로명 주소,불당1동,
충청남도 천안시 서북구 불당17길 14(불당동),gimi9,ok,충청남도 천안시 서북구 불당17길 14(불당동),127.1082459602999,36.80856713889048,도로명 주소,불당1동,
충청남도 천안시 서북구 불당18로 33,gimi9,ok,충청남도 천안시 서북구 불당18로 33,127.10522452919872,36.80531186909204,도로명 주소,불당2동,
"충청남도 천안시 서북구 불당21로 67-18, 5층 502호 (불당동)",gimi9,ok,"충청남도 천안시 서북구 불당21로 67-18, 5층 502호 (불당동)",127.10849832021223,36.81404888126957,도로명 주소,불당2동,
"충청남도 천안시 서북구 불당21로 67-26, 2층 201,202,203호 (불당동)",gimi9,ok,"충청남도 천안시 서북구 불당21로 67-26, 2층 201,202,203호 (불당동)",127.10872995317077,36.81479785975115,도로명 주소,불당2동,
"충청남도 천안시 서북구 불당21로 67-8, 5층 503호 (불당동)",gimi9,ok,"충청남도 천안시 서북구 불당21로 67-8, 5층 503호 (불당동)",127.10825566407388,36.813263807327445,도로명 주소,불당2동,
"충청남도 천안시 서북구 불당21로 67-8, 7층 (불당동)",gimi9,ok,"충청남도 천안시 서북구 불당21로 67-8, 7층 (불당동)",127.10825566407388,36.813263807327445,도로명 주소,불당2동,
"충청남도 천안시 서북구 불당23로 13, 503 1602 (불당동, 이안아파트)",gimi9,ok,"충청남도 천안시 서북구 불당23로 13, 503 1602 (불당동, 이안아파트)",127.1038124362193,36.8204608050658,도로명 주소,불당2동,
충청남도 천안시 서북구 불당23로 29,gimi9,ok,충청남도 천안시 서북구 불당23로 29,127.1049041168784,36.81967114877786,도로명 주소,불당2동,
충청남도 천안시 서북구 불당23로 30,gimi9,ok,충청남도 천안시 서북구 불당23로 30,127.10477693920492,36.8182373977371,도로명 주소,불당2동,
충청남도 천안시 서북구 불당23로 41,gimi9,ok,충청남도 천안시 서북구 불당23로 41,127.10560205397476,36.81913258706814,도로명 주소,불당2동,
"충청남도 천안시 서북구 불당23로 70, 102호(불당동)",gimi9,ok,"충청남도 천안시 서북구 불당23로 70, 102호(불당동)",127.1087940757452,36.81761965600533,도로명 주소,불당2동,
"충청남도 천안시 서북구 불당23로 73-30, 103호(불당동)",gimi9,ok,"충청남도 천안시 서북구 불당23로 73-30, 103호(불당동)",127.11039626652976,36.82005887053321,도로명 주소,불당2동,
"충청남도 천안시 서북구 불당25로 154, 1층 118호(불당동, W타워)",gimi9,ok,"충청남도 천안시 서북구 불당25로 154, 1층 118호(불당동, W타워)",127.10794454489536,36.814912463431526,도로명 주소,불당2동,
"충청남도 천안시 서북구 불당25로 174, 1021호 (불당동)",gimi9,ok,"충청남도 천안시 서북구 불당25로 174, 1021호 (불당동)",127.1084193427517,36.81634735721744,도로명 주소,불당2동,
"충청남도 천안시 서북구 불당25로 176, 119호(불당동)",gimi9,ok,"충청남도 천안시 서북구 불당25로 176, 119호(불당동)",127.1091262824898,36.81623249256728,도로명 주소,불당2동,
충청남도 천안시 서북구 불당25로 182,gimi9,ok,충청남도 천안시 서북구 불당25로 182,127.10869477390568,36.81730381661486,도로명 주소,불당2동,
"충청남도 천안시 서북구 불당25로 8, 301동 1301호 (불당동, 불당호반써밋플레이스 센터시티)",gimi9,ok,"충청남도 천안시 서북구 불당25로 8, 301동 1301호 (불당동, 불당호반써밋플레이스 센터시티)",127.10483712743373,36.80216446368326,도로명 주소,불당2동,
"충청남도 천안시 서북구 불당25로 8, 가동 지1층 106호(불당동)",gimi9,ok,"충청남도 천안시 서북구 불당25로 8, 가동 지1층 106호(불당동)",127.10483712743373,36.80216446368326,도로명 주소,불당2동,
"충청남도 천안시 서북구 불당26로 50,504동 303호 (불당동,천안불당지웰시티푸르지오 2단지)",gimi9,ok,"충청남도 천안시 서북구 불당26로 50,504동 303호 (불당동,천안불당지웰시티푸르지오 2단지)",127.10511680219572,36.81100877691241,도로명 주소,불당2동,
충청남도 천안시 서북구 불당27길 1,gimi9,ok,충청남도 천안시 서북구 불당27길 1,127.10180666269972,36.81372016474455,도로명 주소,nan,
충청남도 천안시 서북구 불당27로 12,gimi9,ok,충청남도 천안시 서북구 불당27로 12,127.1014690118402,36.8139714438848,도로명 주소,nan,
충청남도 천안시 서북구 불당29길 22,gimi9,ok,충청남도 천안시 서북구 불당29길 22,127.10297210600224,36.80948717375684,도로명 주소,불당2동,
"충청남도 천안시 서북구 불당33길 28, 지앤지홀딩스타워 5~8층 (불당동)",gimi9,ok,"충청남도 천안시 서북구 불당33길 28, 지앤지홀딩스타워 5~8층 (불당동)",127.10747464310803,36.81252203029349,도로명 주소,불당2동,
충청남도 천안시 서북구 불당4로 39-21,gimi9,ok,충청남도 천안시 서북구 불당4로 39-21,127.10954832432118,36.8059842135492,도로명 주소,불당1동,
"충청남도 천안시 서북구 불당5길 15, 2층 201호 (불당동)",gimi9,ok,"충청남도 천안시 서북구 불당5길 15, 2층 201호 (불당동)",127.10923953181036,36.80277397772021,도로명 주소,불당1동,
"충청남도 천안시 서북구 불당7길 3, 202호 (불당동)",gimi9,ok,"충청남도 천안시 서북구 불당7길 3, 202호 (불당동)",127.11087790015624,36.80243679191861,도로명 주소,불당1동,
"충청남도 천안시 서북구 불당8길 17-1, 101호 (불당동)",gimi9,ok,"충청남도 천안시 서북구 불당8길 17-1, 101호 (불당동)",127.10780476580406,36.80275122570597,도로명 주소,불당1동,
"충청남도 천안시 서북구 불당8길 4, 1층 (불당동, 영진빌딩)",gimi9,ok,"충청남도 천안시 서북구 불당8길 4, 1층 (불당동, 영진빌딩)",127.10639472709946,36.80227780474742,도로명 주소,불당1동,
"충청남도 천안시 서북구 불당9길 52, 2층 (불당동)",gimi9,ok,"충청남도 천안시 서북구 불당9길 52, 2층 (불당동)",127.11184194148537,36.80243994214288,도로명 주소,불당1동,
"충청남도 천안시 서북구 불당대로 269, 122호 (쌍용동)",gimi9,ok,"충청남도 천안시 서북구 불당대로 269, 122호 (쌍용동)",127.12593218694504,36.80027649757268,도로명 주소,쌍용3동,
충청남도 천안시 서북구 불당동 1282번지,gimi9,ok,충청남도 천안시 서북구 불당동 1282번지,127.09804243742242,36.79386622334888,지번 주소,불당1동,
충청남도 천안시 서북구 불당동 1309번지 일원,gimi9,ok,충청남도 천안시 서북구 불당동 1309번지 일원,127.10598527696484,36.80123976187326,도로명 주소,불당1동,
충청남도 천안시 서북구 불당동 1451번지,gimi9,ok,충청남도 천안시 서북구 불당동 1451번지,127.10257850617316,36.798875597465866,지번 주소,불당1동,
충청남도 천안시 서북구 불당동 1499번지,gimi9,ok,충청남도 천안시 서북구 불당동 1499번지,127.1065218705202,36.81905450246941,도로명 주소,불당2동,
충청남도 천안시 서북구 불당동 1506번지,gimi9,ok,충청남도 천안시 서북구 불당동 1506번지,127.1014186791765,36.82151653297453,지번 주소,불당2동,
충청남도 천안시 서북구 불당동 1512번지,gimi9,ok,충청남도 천안시 서북구 불당동 1512번지,127.10369020434966,36.81807151727611,지번 주소,불당2동,
충청남도 천안시 서북구 불당동 1547번지,gimi9,ok,충청남도 천안시 서북구 불당동 1547번지,127.10341580545165,36.81475321216572,도로명 주소,불당2동,
충청남도 천안시 서북구 불당동 1612번지,gimi9,ok,충청남도 천안시 서북구 불당동 1612번지,127.10315626695008,36.8129043428082,지번 주소,불당2동,
충청남도 천안시 서북구 불당동 1641번지,gimi9,ok,충청남도 천안시 서북구 불당동 1641번지,127.1076073981931,36.810674463907255,지번 주소,불당2동,
충청남도 천안시 서북구 불당동 1642번지,gimi9,ok,충청남도 천안시 서북구 불당동 1642번지,127.10675235940457,36.80906703037983,지번 주소,불당2동,
충청남도 천안시 서북구 불당동 1800번지,gimi9,ok,충청남도 천안시 서북구 불당동 1800번지,127.09970524023156,36.81680513399908,지번 주소,불당2동,
충청남도 천안시 서북구 불당동 1851번지,gimi9,ok,충청남도 천안시 서북구 불당동 1851번지,127.10402698804388,36.80492927200751,도로명 주소,불당2동,
충청남도 천안시 서북구 불당동 1855번지,gimi9,ok,충청남도 천안시 서북구 불당동 1855번지,127.10725698098862,36.80904165395785,지번 주소,불당2동,
충청남도 천안시 서북구 불당동 242-3,gimi9,ok,충청남도 천안시 서북구 불당동 242-3,127.1137529903129,36.81253357305783,지번 주소,불당1동,
충청남도 천안시 서북구 불당동 743번지,gimi9,ok,충청남도 천안시 서북구 불당동 743번지,127.11307876639565,36.81061125919478,지번 주소,불당1동,
충청남도 천안시 서북구 불당동 815번지,gimi9,ok,충청남도 천안시 서북구 불당동 815번지,127.11495108635036,36.80388338144235,도로명 주소,불당1동,
충청남도 천안시 서북구 불당동 859번지,gimi9,ok,충청남도 천안시 서북구 불당동 859번지,127.109195092018,36.80490129342726,지번 주소,불당1동,
"충청남도 천안시 서북구 새말3길 16 (쌍용동,영서빌딩 1층)",gimi9,ok,"충청남도 천안시 서북구 새말3길 16 (쌍용동,영서빌딩 1층)",127.1310620040062,36.79647930994186,도로명 주소,쌍용1동,
충청남도 천안시 서북구 서부12길12(성정동),gimi9,ok,충청남도 천안시 서북구 서부12길12(성정동),127.13733658304108,36.82078412664961,도로명 주소,성정2동,
충청남도 천안시 서북구 서부13길 39,gimi9,ok,충청남도 천안시 서북구 서부13길 39,127.14163101064555,36.82078813191507,도로명 주소,성정2동,
충청남도 천안시 서북구 서부14길 55,gimi9,ok,충청남도 천안시 서북구 서부14길 55,127.1423686027056,36.82131320236733,도로명 주소,성정2동,
충청남도 천안시 서북구 서부16길 27,gimi9,ok,충청남도 천안시 서북구 서부16길 27,127.13963722723648,36.8227382854998,도로명 주소,성정2동,
충청남도 천안시 서북구 서부1길 58(성정동),gimi9,ok,충청남도 천안시 서북구 서부1길 58(성정동),127.13778299778664,36.8236070724469,도로명 주소,성정2동,
충청남도 천안시 서북구 서부8길 29,gimi9,ok,충청남도 천안시 서북구 서부8길 29,127.13987537929168,36.8197731868295,도로명 주소,성정2동,
충청남도 천안시 서북구 서부대로 296-10 (쌍용동),gimi9,ok,충청남도 천안시 서북구 서부대로 296-10 (쌍용동),127.12822212198212,36.79498304383617,도로명 주소,쌍용1동,
"충청남도 천안시 서북구 서부대로 319-4, 303호 (쌍용동)",gimi9,ok,"충청남도 천안시 서북구 서부대로 319-4, 303호 (쌍용동)",127.1255620585114,36.795713903768885,도로명 주소,쌍용2동,
충청남도 천안시 서북구 서부대로 410 (쌍용동),gimi9,ok,충청남도 천안시 서북구 서부대로 410 (쌍용동),127.12789947626592,36.803753319197405,도로명 주소,쌍용1동,
"충청남도 천안시 서북구 서부대로 413 (쌍용동, 천안컨벤션센터 별관 3층)",gimi9,ok,"충청남도 천안시 서북구 서부대로 413 (쌍용동, 천안컨벤션센터 별관 3층)",127.12694225394954,36.80465178779308,도로명 주소,쌍용3동,
충청남도 천안시 서북구 서부대로 425 (쌍용동),gimi9,ok,충청남도 천안시 서북구 서부대로 425 (쌍용동),127.12721774419744,36.805635250844425,도로명 주소,쌍용3동,
"충청남도 천안시 서북구 서부대로 425, 1층 (쌍용동)",gimi9,ok,"충청남도 천안시 서북구 서부대로 425, 1층 (쌍용동)",127.12721774419744,36.805635250844425,도로명 주소,쌍용3동,
"충청남도 천안시 서북구 서부대로 602, 105호 (성정동)",gimi9,ok,"충청남도 천안시 서북구 서부대로 602, 105호 (성정동)",127.13198788152783,36.82083981068107,도로명 주소,성정2동,
"충청남도 천안시 서북구 서부대로 766, 201,501호 (두정동)",gimi9,ok,"충청남도 천안시 서북구 서부대로 766, 201,501호 (두정동)",127.1339245354846,36.83562078146092,도로명 주소,부성2동,
충청남도 천안시 서북구 성거읍 망향로 380,gimi9,ok,충청남도 천안시 서북구 성거읍 망향로 380,127.1846630661927,36.854092916858406,도로명 주소,성거읍,
충청남도 천안시 서북구 성거읍 망향로 528-3,gimi9,ok,충청남도 천안시 서북구 성거읍 망향로 528-3,127.1948712424133,36.865324714830656,도로명 주소,성거읍,
충청남도 천안시 서북구 성거읍 문덕리 20-3,gimi9,ok,충청남도 천안시 서북구 성거읍 문덕리 20-3,127.1871317049646,36.87591476490152,지번 주소,성거읍,
충청남도 천안시 서북구 성거읍 문성1길 69-13,gimi9,ok,충청남도 천안시 서북구 성거읍 문성1길 69-13,127.18494713301688,36.87780205529025,도로명 주소,성거읍,
"충청남도 천안시 서북구 성거읍 문성1길 69-13, 1층",gimi9,ok,"충청남도 천안시 서북구 성거읍 문성1길 69-13, 1층",127.18494713301688,36.87780205529025,도로명 주소,성거읍,
충청남도 천안시 서북구 성거읍 봉주로 469,gimi9,ok,충청남도 천안시 서북구 성거읍 봉주로 469,127.1994666424296,36.87792079081346,도로명 주소,성거읍,
충청남도 천안시 서북구 성거읍 봉주로 75,gimi9,ok,충청남도 천안시 서북구 성거읍 봉주로 75,127.15497290832263,36.87845800813905,도로명 주소,성거읍,
"충청남도 천안시 서북구 성거읍 봉주로 93, 3층 302호",gimi9,ok,"충청남도 천안시 서북구 성거읍 봉주로 93, 3층 302호",127.15684938639214,36.87788650875663,도로명 주소,성거읍,
"충청남도 천안시 서북구 성거읍 봉주로 93, 402-3호",gimi9,ok,"충청남도 천안시 서북구 성거읍 봉주로 93, 402-3호",127.15684938639214,36.87788650875663,도로명 주소,성거읍,
"충청남도 천안시 서북구 성거읍 봉주로 93, 502호",gimi9,ok,"충청남도 천안시 서북구 성거읍 봉주로 93, 502호",127.15684938639214,36.87788650875663,도로명 주소,성거읍,
"충청남도 천안시 서북구 성거읍 봉주로 93, 502호 (천우빌딩)",gimi9,ok,"충청남도 천안시 서북구 성거읍 봉주로 93, 502호 (천우빌딩)",127.15684938639214,36.87788650875663,도로명 주소,성거읍,
충청남도 천안시 서북구 성거읍 석교리 179-2,gimi9,ok,충청남도 천안시 서북구 성거읍 석교리 179-2,127.18887496825865,36.86108132257992,지번 주소,성거읍,
충청남도 천안시 서북구 성거읍 성거길 157-32,gimi9,ok,충청남도 천안시 서북구 성거읍 성거길 157-32,127.20494007443467,36.88146822112258,도로명 주소,성거읍,
"충청남도 천안시 서북구 성거읍 성거길 82, 102호 (장미아파트 상가동)",gimi9,ok,"충청남도 천안시 서북구 성거읍 성거길 82, 102호 (장미아파트 상가동)",127.2023162818484,36.87226680327126,도로명 주소,성거읍,
충청남도 천안시 서북구 성거읍 소댕이3길 13,gimi9,ok,충청남도 천안시 서북구 성거읍 소댕이3길 13,127.1960813097343,36.8713946369892,도로명 주소,성거읍,
충청남도 천안시 서북구 성거읍 소댕이3길 606-21,gimi9,ok,충청남도 천안시 서북구 성거읍 소댕이3길 606-21,127.20052215937336,36.87198284370123,도로명 주소,성거읍,
충청남도 천안시 서북구 성거읍 소우리 6-2,gimi9,ok,충청남도 천안시 서북구 성거읍 소우리 6-2,127.17480803067475,36.874051723472256,지번 주소,성거읍,
충청남도 천안시 서북구 성거읍 소우리 73-3,gimi9,ok,충청남도 천안시 서북구 성거읍 소우리 73-3,127.1717998723293,36.86905838982964,지번 주소,성거읍,
충청남도 천안시 서북구 성거읍 송남2길 22,gimi9,ok,충청남도 천안시 서북구 성거읍 송남2길 22,127.20227093006838,36.86660552465551,도로명 주소,성거읍,
충청남도 천안시 서북구 성거읍 신월길 42,gimi9,ok,충청남도 천안시 서북구 성거읍 신월길 42,127.15188651499444,36.87364424098822,도로명 주소,성거읍,
충청남도 천안시 서북구 성거읍 역전말3길 102,gimi9,ok,충청남도 천안시 서북구 성거읍 역전말3길 102,127.16153532710106,36.87634944030908,도로명 주소,성거읍,
충청남도 천안시 서북구 성거읍 오송1길 20,gimi9,ok,충청남도 천안시 서북구 성거읍 오송1길 20,127.19879086742672,36.88713197390057,도로명 주소,성거읍,
충청남도 천안시 서북구 성거읍 요방리 207-4,gimi9,ok,충청남도 천안시 서북구 성거읍 요방리 207-4,127.18087994818832,36.84667280518049,지번 주소,성거읍,
충청남도 천안시 서북구 성거읍 저리 1-3,gimi9,ok,충청남도 천안시 서북구 성거읍 저리 1-3,127.20389904940204,36.88661295256969,도로명 주소,성거읍,
충청남도 천안시 서북구 성거읍 천흥2길 42,gimi9,ok,충청남도 천안시 서북구 성거읍 천흥2길 42,127.20319382946874,36.86875330693619,도로명 주소,성거읍,
충청남도 천안시 서북구 성거읍 천흥4길 72-7,gimi9,ok,충청남도 천안시 서북구 성거읍 천흥4길 72-7,127.20878035354777,36.871940263625376,도로명 주소,성거읍,
충청남도 천안시 서북구 성거읍 천흥리 533-34,gimi9,ok,충청남도 천안시 서북구 성거읍 천흥리 533-34,127.21161278984334,36.87360585497288,지번 주소,성거읍,
충청남도 천안시 서북구 성성10길 10-4,gimi9,ok,충청남도 천안시 서북구 성성10길 10-4,127.1368508486101,36.84052469685123,도로명 주소,부성2동,
충청남도 천안시 서북구 성성10길 32 (성성동),gimi9,ok,충청남도 천안시 서북구 성성10길 32 (성성동),127.1376848259562,36.83967085229317,도로명 주소,부성2동,
충청남도 천안시 서북구 성성10길 77,gimi9,ok,충청남도 천안시 서북구 성성10길 77,127.13594035254148,36.840954613969245,도로명 주소,부성2동,
충청남도 천안시 서북구 성성2길 66,gimi9,ok,충청남도 천안시 서북구 성성2길 66,127.130861483164,36.845247938900464,도로명 주소,부성2동,
충청남도 천안시 서북구 성성6로 37,gimi9,ok,충청남도 천안시 서북구 성성6로 37,127.124114575607,36.8418823763215,도로명 주소,부성2동,
충청남도 천안시 서북구 성성6로 40,gimi9,ok,충청남도 천안시 서북구 성성6로 40,127.12418650051238,36.840936069030654,도로명 주소,부성2동,
충청남도 천안시 서북구 성성6로 47-11,gimi9,ok,충청남도 천안시 서북구 성성6로 47-11,127.12435465994751,36.84324434192032,도로명 주소,부성2동,
충청남도 천안시 서북구 성성동 525-1번지 일원,gimi9,ok,충청남도 천안시 서북구 성성동 525-1번지 일원,127.11798158561967,36.83696789005768,지번 주소,백석동,
충청남도 천안시 서북구 성성동 711번지,gimi9,ok,충청남도 천안시 서북구 성성동 711번지,127.13066927427631,36.84090229732616,지번 주소,부성2동,
충청남도 천안시 서북구 성성동 791번지,gimi9,ok,충청남도 천안시 서북구 성성동 791번지,127.13690871531044,36.84014625950204,지번 주소,부성2동,
충청남도 천안시 서북구 성성동 829번지,gimi9,ok,충청남도 천안시 서북구 성성동 829번지,127.12297421791706,36.841139566863575,지번 주소,부성2동,
충청남도 천안시 서북구 성성동 976번지,gimi9,ok,충청남도 천안시 서북구 성성동 976번지,127.12404556131054,36.84223372807897,지번 주소,부성2동,
충청남도 천안시 서북구 성성동 999번지,gimi9,ok,충청남도 천안시 서북구 성성동 999번지,127.1264923750052,36.83725635615248,지번 주소,부성2동,
"충청남도 천안시 서북구 성정14길 10, 1층 104호 (성정동)",gimi9,ok,"충청남도 천안시 서북구 성정14길 10, 1층 104호 (성정동)",127.13725098615151,36.81753859033181,도로명 주소,성정1동,
충청남도 천안시 서북구 성정6길 8-7,gimi9,ok,충청남도 천안시 서북구 성정6길 8-7,127.1405619462414,36.81442055757549,도로명 주소,성정1동,
충청남도 천안시 서북구 성정7길 3,gimi9,ok,충청남도 천안시 서북구 성정7길 3,127.14116190089676,36.815594275361285,도로명 주소,성정1동,
충청남도 천안시 서북구 성정8길 5,gimi9,ok,충청남도 천안시 서북구 성정8길 5,127.14145368614,36.817938966614825,도로명 주소,성정1동,
"충청남도 천안시 서북구 성정공원5로 7, 2층 (성정동)",gimi9,ok,"충청남도 천안시 서북구 성정공원5로 7, 2층 (성정동)",127.13833279513844,36.82829636055913,도로명 주소,성정2동,
충청남도 천안시 서북구 성정동 1180번지,gimi9,ok,충청남도 천안시 서북구 성정동 1180번지,127.13557848535494,36.82739550145703,지번 주소,성정2동,
충청남도 천안시 서북구 성정동 124-22번지,gimi9,ok,충청남도 천안시 서북구 성정동 124-22번지,127.14567350877252,36.81463422027401,지번 주소,성정1동,
충청남도 천안시 서북구 성정동 1282번지,gimi9,ok,충청남도 천안시 서북구 성정동 1282번지,127.13849374663285,36.829838353249855,도로명 주소,성정2동,
충청남도 천안시 서북구 성정동 1569번지,gimi9,ok,충청남도 천안시 서북구 성정동 1569번지,127.1472947756284,36.82781846272113,도로명 주소,성정2동,
충청남도 천안시 서북구 성정동 436-10번지,gimi9,ok,충청남도 천안시 서북구 성정동 436-10번지,127.13509857731349,36.82455441725203,도로명 주소,성정2동,
충청남도 천안시 서북구 성정동 609-199번지 일원,gimi9,ok,충청남도 천안시 서북구 성정동 609-199번지 일원,127.14735227238732,36.81528826613445,지번 주소,성정1동,
충청남도 천안시 서북구 성정동 626-3번지,gimi9,ok,충청남도 천안시 서북구 성정동 626-3번지,127.14006422423394,36.82493915268216,지번 주소,성정2동,
충청남도 천안시 서북구 성정동 637번지,gimi9,ok,충청남도 천안시 서북구 성정동 637번지,127.14681571582064,36.824697973414594,지번 주소,성정2동,
충청남도 천안시 서북구 성정동 646-2번지,gimi9,ok,충청남도 천안시 서북구 성정동 646-2번지,127.1383340845475,36.82325717865156,지번 주소,성정2동,
충청남도 천안시 서북구 성정동 657-3번지,gimi9,ok,충청남도 천안시 서북구 성정동 657-3번지,127.14077224611114,36.82220084089176,지번 주소,성정2동,
충청남도 천안시 서북구 성정동 673-6번지,gimi9,ok,충청남도 천안시 서북구 성정동 673-6번지,127.13770778501588,36.82053284795401,지번 주소,성정2동,
충청남도 천안시 서북구 성정동 691번지,gimi9,ok,충청남도 천안시 서북구 성정동 691번지,127.14406988371849,36.81955143485624,지번 주소,성정2동,
충청남도 천안시 서북구 성정동 694-8번지,gimi9,ok,충청남도 천안시 서북구 성정동 694-8번지,127.14129903059872,36.81744269407992,지번 주소,성정1동,
충청남도 천안시 서북구 성정동 714번지 1호 102호,gimi9,ok,충청남도 천안시 서북구 성정동 714번지 1호 102호,127.1417705231204,36.81731791017483,도로명 주소,성정1동,
충청남도 천안시 서북구 성정동 715-21번지,gimi9,ok,충청남도 천안시 서북구 성정동 715-21번지,127.14104181284252,36.81489978407856,지번 주소,성정1동,
충청남도 천안시 서북구 성정동 737-4번지,gimi9,ok,충청남도 천안시 서북구 성정동 737-4번지,127.13790000496203,36.81305126798603,지번 주소,성정1동,
충청남도 천안시 서북구 성정동 795번지 일원,gimi9,ok,충청남도 천안시 서북구 성정동 795번지 일원,127.13607617436143,36.82175385806941,도로명 주소,성정2동,
충청남도 천안시 서북구 성정동 823번지 선경(아)상가 304호,gimi9,ok,충청남도 천안시 서북구 성정동 823번지 선경(아)상가 304호,127.13427184178178,36.82155901458747,도로명 주소,성정2동,
충청남도 천안시 서북구 성정동 844번지,gimi9,ok,충청남도 천안시 서북구 성정동 844번지,127.13471054706312,36.82126287966575,지번 주소,성정2동,
충청남도 천안시 서북구 성정동 940번지 일원,gimi9,ok,충청남도 천안시 서북구 성정동 940번지 일원,127.13393691650028,36.81889866199427,도로명 주소,성정2동,
충청남도 천안시 서북구 성정동 955번지,gimi9,ok,충청남도 천안시 서북구 성정동 955번지,127.13249744353476,36.819795687176345,지번 주소,성정2동,
충청남도 천안시 서북구 성정두정로 130,gimi9,ok,충청남도 천안시 서북구 성정두정로 130,127.14207099824624,36.83706088229161,도로명 주소,부성1동,
"충청남도 천안시 서북구 성정로 82, 2층 (성정동, 후생빌딩, 사랑의메디칼의원)",gimi9,ok,"충청남도 천안시 서북구 성정로 82, 2층 (성정동, 후생빌딩, 사랑의메디칼의원)",127.1389743064583,36.81347822342365,도로명 주소,성정1동,
"충청남도 천안시 서북구 성정로 91, 4층 408호 (성정동)",gimi9,ok,"충청남도 천안시 서북구 성정로 91, 4층 408호 (성정동)",127.14023959495788,36.81382461513024,도로명 주소,성정1동,
"충청남도 천안시 서북구 성정로 92, 2층 (성정동, 덕산빌딩)",gimi9,ok,"충청남도 천안시 서북구 성정로 92, 2층 (성정동, 덕산빌딩)",127.1401289148377,36.813517781717984,도로명 주소,성정1동,
"충청남도 천안시 서북구 성정중1길 31, 2층 (성정동, 삼소빌딩)",gimi9,ok,"충청남도 천안시 서북구 성정중1길 31, 2층 (성정동, 삼소빌딩)",127.1337611321331,36.82990500164429,도로명 주소,성정2동,
"충청남도 천안시 서북구 성정중1길 31, 403호 (성정동)",gimi9,ok,"충청남도 천안시 서북구 성정중1길 31, 403호 (성정동)",127.1337611321331,36.82990500164429,도로명 주소,성정2동,
충청남도 천안시 서북구 성정중2길 40,gimi9,ok,충청남도 천안시 서북구 성정중2길 40,127.13550941885109,36.83013573982444,도로명 주소,성정2동,
충청남도 천안시 서북구 성정중5길 7-1(성정동),gimi9,ok,충청남도 천안시 서북구 성정중5길 7-1(성정동),127.13463432647096,36.82786136526116,도로명 주소,성정2동,
"충청남도 천안시 서북구 성정중7길 3, 4층 (성정동)",gimi9,ok,"충청남도 천안시 서북구 성정중7길 3, 4층 (성정동)",127.13351928671209,36.82888560249432,도로명 주소,성정2동,
충청남도 천안시 서북구 성환읍 대학로 26,gimi9,ok,충청남도 천안시 서북구 성환읍 대학로 26,127.13811766234,36.914366864920645,도로명 주소,성환읍,
"충청남도 천안시 서북구 성환읍 매주4길 28, 1층",gimi9,ok,"충청남도 천안시 서북구 성환읍 매주4길 28, 1층",127.12755335149328,36.91212565993565,도로명 주소,성환읍,
충청남도 천안시 서북구 성환읍 매주리 328,gimi9,ok,충청남도 천안시 서북구 성환읍 매주리 328,127.1289841405973,36.91107543909377,도로명 주소,성환읍,
충청남도 천안시 서북구 성환읍 매주리 477-4,gimi9,ok,충청남도 천안시 서북구 성환읍 매주리 477-4,127.11924233657318,36.90836730663381,지번 주소,성환읍,
충청남도 천안시 서북구 성환읍 무내3길 15,gimi9,ok,충청남도 천안시 서북구 성환읍 무내3길 15,127.15139503998476,36.94716521845913,도로명 주소,성환읍,
충청남도 천안시 서북구 성환읍 성월리 93-28번지,gimi9,ok,충청남도 천안시 서북구 성환읍 성월리 93-28번지,127.13449006040564,36.91232749446719,지번 주소,성환읍,
충청남도 천안시 서북구 성환읍 성월수향길 30,gimi9,ok,충청남도 천안시 서북구 성환읍 성월수향길 30,127.13738941862314,36.92117059495114,도로명 주소,성환읍,
"충청남도 천안시 서북구 성환읍 성월수향길 30, 2층",gimi9,ok,"충청남도 천안시 서북구 성환읍 성월수향길 30, 2층",127.13738941862314,36.92117059495114,도로명 주소,성환읍,
충청남도 천안시 서북구 성환읍 성진로 27,gimi9,ok,충청남도 천안시 서북구 성환읍 성진로 27,127.13855484824872,36.91212358254506,도로명 주소,성환읍,
충청남도 천안시 서북구 성환읍 성환12길 31,gimi9,ok,충청남도 천안시 서북구 성환읍 성환12길 31,127.1313210450887,36.9176723191844,도로명 주소,성환읍,
충청남도 천안시 서북구 성환읍 성환12길 37,gimi9,ok,충청남도 천안시 서북구 성환읍 성환12길 37,127.13303656348494,36.91812835602786,도로명 주소,성환읍,
충청남도 천안시 서북구 성환읍 성환12길 46,gimi9,ok,충청남도 천안시 서북구 성환읍 성환12길 46,127.13300828259382,36.9170014557622,도로명 주소,성환읍,
충청남도 천안시 서북구 성환읍 성환12길 7,gimi9,ok,충청남도 천안시 서북구 성환읍 성환12길 7,127.12824415565068,36.91782499126727,도로명 주소,성환읍,
"충청남도 천안시 서북구 성환읍 성환13길 4-1, 2층",gimi9,ok,"충청남도 천안시 서북구 성환읍 성환13길 4-1, 2층",127.13381306055516,36.91774312851529,도로명 주소,성환읍,
충청남도 천안시 서북구 성환읍 성환13길 7,gimi9,ok,충청남도 천안시 서북구 성환읍 성환13길 7,127.1347551977438,36.917935333500125,도로명 주소,성환읍,
충청남도 천안시 서북구 성환읍 성환1로 138,gimi9,ok,충청남도 천안시 서북구 성환읍 성환1로 138,127.13016867059775,36.90521969659515,도로명 주소,성환읍,
"충청남도 천안시 서북구 성환읍 성환1로 202, 1층",gimi9,ok,"충청남도 천안시 서북구 성환읍 성환1로 202, 1층",127.12847142166058,36.912633347115865,도로명 주소,성환읍,
충청남도 천안시 서북구 성환읍 성환1로45,gimi9,ok,충청남도 천안시 서북구 성환읍 성환1로45,127.131990834267,36.89977156658678,도로명 주소,성환읍,
충청남도 천안시 서북구 성환읍 성환2로 79,gimi9,ok,충청남도 천안시 서북구 성환읍 성환2로 79,127.1312331124999,36.91494966586405,도로명 주소,성환읍,
"충청남도 천안시 서북구 성환읍 성환3로 38, 101호",gimi9,ok,"충청남도 천안시 서북구 성환읍 성환3로 38, 101호",127.13224312907082,36.91502491286484,도로명 주소,성환읍,
"충청남도 천안시 서북구 성환읍 성환9길 9, 1,4층",gimi9,ok,"충청남도 천안시 서북구 성환읍 성환9길 9, 1,4층",127.12901547234128,36.916195777493165,도로명 주소,성환읍,
"충청남도 천안시 서북구 성환읍 성환9길 9, 2층 202호",gimi9,ok,"충청남도 천안시 서북구 성환읍 성환9길 9, 2층 202호",127.12901547234128,36.916195777493165,도로명 주소,성환읍,
"충청남도 천안시 서북구 성환읍 성환9길 9, 3층 (광성빌딩)",gimi9,ok,"충청남도 천안시 서북구 성환읍 성환9길 9, 3층 (광성빌딩)",127.12901547234128,36.916195777493165,도로명 주소,성환읍,
"충청남도 천안시 서북구 성환읍 성환9길 9, 4층 (광성빌딩)",gimi9,ok,"충청남도 천안시 서북구 성환읍 성환9길 9, 4층 (광성빌딩)",127.12901547234128,36.916195777493165,도로명 주소,성환읍,
충청남도 천안시 서북구 성환읍 성환리 406,gimi9,ok,충청남도 천안시 서북구 성환읍 성환리 406,127.13236672693694,36.91266349414676,도로명 주소,성환읍,
충청남도 천안시 서북구 성환읍 성환리 449-729번지 일원,gimi9,ok,충청남도 천안시 서북구 성환읍 성환리 449-729번지 일원,127.1271138081835,36.919398986072885,도로명 주소,성환읍,
충청남도 천안시 서북구 성환읍 성환리 449번지 135호,gimi9,ok,충청남도 천안시 서북구 성환읍 성환리 449번지 135호,127.12988133295958,36.9182267414346,도로명 주소,성환읍,
충청남도 천안시 서북구 성환읍 성환신흥2길 2,gimi9,ok,충청남도 천안시 서북구 성환읍 성환신흥2길 2,127.11540655613196,36.95017312602102,도로명 주소,성환읍,
충청남도 천안시 서북구 성환읍 성환중앙로 35,gimi9,ok,충청남도 천안시 서북구 성환읍 성환중앙로 35,127.1298417412124,36.91712684881424,도로명 주소,성환읍,
충청남도 천안시 서북구 성환읍 성환중앙로 36,gimi9,ok,충청남도 천안시 서북구 성환읍 성환중앙로 36,127.1301451197879,36.91707370671367,도로명 주소,성환읍,
"충청남도 천안시 서북구 성환읍 성환중앙로 56, 1층",gimi9,ok,"충청남도 천안시 서북구 성환읍 성환중앙로 56, 1층",127.1313062600705,36.9184114624624,도로명 주소,성환읍,
"충청남도 천안시 서북구 성환읍 성환중앙로 66-9, 101호",gimi9,ok,"충청남도 천안시 서북구 성환읍 성환중앙로 66-9, 101호",127.13307866322974,36.91871442869456,도로명 주소,성환읍,
충청남도 천안시 서북구 성환읍 송골2길 18-11,gimi9,ok,충청남도 천안시 서북구 성환읍 송골2길 18-11,127.13688096162794,36.91948333026971,도로명 주소,성환읍,
충청남도 천안시 서북구 성환읍 수향리 290,gimi9,ok,충청남도 천안시 서북구 성환읍 수향리 290,127.14364942964492,36.95115366358232,도로명 주소,성환읍,
충청남도 천안시 서북구 성환읍 신가리 113-85,gimi9,ok,충청남도 천안시 서북구 성환읍 신가리 113-85,127.11982543895095,36.9672697126258,지번 주소,성환읍,
충청남도 천안시 서북구 성환읍 신가리 340-3,gimi9,ok,충청남도 천안시 서북구 성환읍 신가리 340-3,127.11391528244232,36.94967249247454,지번 주소,성환읍,
충청남도 천안시 서북구 성환읍 신가리 386-29,gimi9,ok,충청남도 천안시 서북구 성환읍 신가리 386-29,127.11475528956022,36.95237054013476,도로명 주소,성환읍,
충청남도 천안시 서북구 성환읍 신방로 336-11,gimi9,ok,충청남도 천안시 서북구 성환읍 신방로 336-11,127.11448318659764,36.92389295686037,도로명 주소,성환읍,
충청남도 천안시 서북구 성환읍 신방로 354,gimi9,ok,충청남도 천안시 서북구 성환읍 신방로 354,127.11563645608254,36.92452770829106,도로명 주소,성환읍,
충청남도 천안시 서북구 성환읍 신방로 73,gimi9,ok,충청남도 천안시 서북구 성환읍 신방로 73,127.08739504461089,36.92933684357703,도로명 주소,성환읍,
충청남도 천안시 서북구 성환읍 신방리 293-12,gimi9,ok,충청남도 천안시 서북구 성환읍 신방리 293-12,127.0795579741693,36.94152395485499,도로명 주소,성환읍,
충청남도 천안시 서북구 성환읍 양령리 461-6,gimi9,ok,충청남도 천안시 서북구 성환읍 양령리 461-6,127.15355202855162,36.9643891317194,지번 주소,성환읍,
충청남도 천안시 서북구 성환읍 연암로 382,gimi9,ok,충청남도 천안시 서북구 성환읍 연암로 382,127.16725932884488,36.9483916215403,도로명 주소,성환읍,
충청남도 천안시 서북구 성환읍 왕림리 104-12,gimi9,ok,충청남도 천안시 서북구 성환읍 왕림리 104-12,127.08848454221813,36.92718616393765,도로명 주소,성환읍,
충청남도 천안시 서북구 성환읍 잠실길 4,gimi9,ok,충청남도 천안시 서북구 성환읍 잠실길 4,127.14794736149084,36.9495438802849,도로명 주소,성환읍,
충청남도 천안시 서북구 성환중앙로 70,gimi9,ok,충청남도 천안시 서북구 성환중앙로 70,127.13263965032498,36.9189564634241,도로명 주소,성환읍,
충청남도 천안시 서북구 세관길 80 (성정동),gimi9,ok,충청남도 천안시 서북구 세관길 80 (성정동),127.1454088580732,36.82339567698348,도로명 주소,성정2동,
충청남도 천안시 서북구 수곡로 19-32,gimi9,ok,충청남도 천안시 서북구 수곡로 19-32,127.12350496562016,36.79003717054109,도로명 주소,쌍용2동,
충청남도 천안시 서북구 스마일시티1로 50,gimi9,ok,충청남도 천안시 서북구 스마일시티1로 50,127.10594241991672,36.844591016316464,도로명 주소,부성2동,
충청남도 천안시 서북구 신당새터 2길 36,gimi9,ok,충청남도 천안시 서북구 신당새터 2길 36,127.15904185939618,36.85165134674861,도로명 주소,부성1동,
충청남도 천안시 서북구 신당새터2길 48 (신당동),gimi9,ok,충청남도 천안시 서북구 신당새터2길 48 (신당동),127.15969994783028,36.85249159118169,도로명 주소,부성1동,
"충청남도 천안시 서북구 신당새터2길 71, 1층 (신당동)",gimi9,ok,"충청남도 천안시 서북구 신당새터2길 71, 1층 (신당동)",127.16088502345907,36.853387424077376,도로명 주소,부성1동,
충청남도 천안시 서북구 쌍용11길 33,gimi9,ok,충청남도 천안시 서북구 쌍용11길 33,127.12350131888788,36.80223402682012,도로명 주소,쌍용3동,
"충청남도 천안시 서북구 쌍용11길 57, 상가동 205호 (쌍용동)",gimi9,ok,"충청남도 천안시 서북구 쌍용11길 57, 상가동 205호 (쌍용동)",127.12568897906046,36.80188034498799,도로명 주소,쌍용3동,
"충청남도 천안시 서북구 쌍용11길 58, 207호 (쌍용동)",gimi9,ok,"충청남도 천안시 서북구 쌍용11길 58, 207호 (쌍용동)",127.12556694479794,36.801618535240735,도로명 주소,쌍용3동,
"충청남도 천안시 서북구 쌍용11길 58, 308동 1401호 (쌍용동)",gimi9,ok,"충청남도 천안시 서북구 쌍용11길 58, 308동 1401호 (쌍용동)",127.12556694479794,36.801618535240735,도로명 주소,쌍용3동,
충청남도 천안시 서북구 쌍용12길 13,gimi9,ok,충청남도 천안시 서북구 쌍용12길 13,127.12101938526122,36.80315465541845,도로명 주소,쌍용3동,
충청남도 천안시 서북구 쌍용14길 66,gimi9,ok,충청남도 천안시 서북구 쌍용14길 66,127.12288010159288,36.79632744368883,도로명 주소,쌍용2동,
충청남도 천안시 서북구 쌍용14길 70,gimi9,ok,충청남도 천안시 서북구 쌍용14길 70,127.12317179813458,36.79627428009952,도로명 주소,쌍용2동,
충청남도 천안시 서북구 쌍용15길 3(쌍용동),gimi9,ok,충청남도 천안시 서북구 쌍용15길 3(쌍용동),127.12107981321392,36.79999069691686,도로명 주소,쌍용2동,
"충청남도 천안시 서북구 쌍용15길 3, 101호 (쌍용동)",gimi9,ok,"충청남도 천안시 서북구 쌍용15길 3, 101호 (쌍용동)",127.12107981321392,36.79999069691686,도로명 주소,쌍용2동,
충청남도 천안시 서북구 쌍용15길 86 (쌍용동),gimi9,ok,충청남도 천안시 서북구 쌍용15길 86 (쌍용동),127.12630661259794,36.79704140402119,도로명 주소,쌍용1동,
충청남도 천안시 서북구 쌍용16길 24(쌍용동),gimi9,ok,충청남도 천안시 서북구 쌍용16길 24(쌍용동),127.12095156347326,36.79871921856473,도로명 주소,쌍용2동,
충청남도 천안시 서북구 쌍용16길 24-1 (쌍용동),gimi9,ok,충청남도 천안시 서북구 쌍용16길 24-1 (쌍용동),127.12092976689196,36.79859294358216,도로명 주소,쌍용2동,
충청남도 천안시 서북구 쌍용16길 38-1(쌍용동),gimi9,ok,충청남도 천안시 서북구 쌍용16길 38-1(쌍용동),127.1213618855244,36.797341279377264,도로명 주소,쌍용2동,
충청남도 천안시 서북구 쌍용16길 40(쌍용동),gimi9,ok,충청남도 천안시 서북구 쌍용16길 40(쌍용동),127.12149648287416,36.79732367842297,도로명 주소,쌍용2동,
"충청남도 천안시 서북구 쌍용17길 53, 201 (쌍용동, 대풍빌딩)",gimi9,ok,"충청남도 천안시 서북구 쌍용17길 53, 201 (쌍용동, 대풍빌딩)",127.12279294978356,36.795813330330425,도로명 주소,쌍용2동,
충청남도 천안시 서북구 쌍용18길 18,gimi9,ok,충청남도 천안시 서북구 쌍용18길 18,127.1200521961965,36.79924821497725,도로명 주소,쌍용2동,
"충청남도 천안시 서북구 쌍용18길 69, 상가동 202호 (쌍용동, 시영2차 근로복지아파트)",gimi9,ok,"충청남도 천안시 서북구 쌍용18길 69, 상가동 202호 (쌍용동, 시영2차 근로복지아파트)",127.12479124117736,36.79747835272023,도로명 주소,쌍용2동,
충청남도 천안시 서북구 쌍용6길 9,gimi9,ok,충청남도 천안시 서북구 쌍용6길 9,127.12247205563,36.80181608904511,도로명 주소,쌍용3동,
"충청남도 천안시 서북구 쌍용7길 11, 1층 101호 (쌍용동)",gimi9,ok,"충청남도 천안시 서북구 쌍용7길 11, 1층 101호 (쌍용동)",127.11987233978287,36.801618500255,도로명 주소,쌍용3동,
충청남도 천안시 서북구 쌍용대로 301,gimi9,ok,충청남도 천안시 서북구 쌍용대로 301,127.13586636032731,36.82343895488938,도로명 주소,성정2동,
"충청남도 천안시 서북구 쌍용대로 43, 3층 (쌍용동)",gimi9,ok,"충청남도 천안시 서북구 쌍용대로 43, 3층 (쌍용동)",127.13133023620924,36.80132102609808,도로명 주소,쌍용1동,
충청남도 천안시 서북구 쌍용동 1133번지,gimi9,ok,충청남도 천안시 서북구 쌍용동 1133번지,127.12831977885028,36.80260976972681,지번 주소,쌍용1동,
충청남도 천안시 서북구 쌍용동 1178번지 일원,gimi9,ok,충청남도 천안시 서북구 쌍용동 1178번지 일원,127.130960750422,36.80122973341462,도로명 주소,쌍용1동,
충청남도 천안시 서북구 쌍용동 1188번지,gimi9,ok,충청남도 천안시 서북구 쌍용동 1188번지,127.12964714010508,36.80165835473278,도로명 주소,쌍용1동,
충청남도 천안시 서북구 쌍용동 1234번지,gimi9,ok,충청남도 천안시 서북구 쌍용동 1234번지,127.12705138738396,36.800640599487984,도로명 주소,쌍용1동,
충청남도 천안시 서북구 쌍용동 1280번지,gimi9,ok,충청남도 천안시 서북구 쌍용동 1280번지,127.12379140598276,36.80251439969777,도로명 주소,쌍용3동,
충청남도 천안시 서북구 쌍용동 1291번지,gimi9,ok,충청남도 천안시 서북구 쌍용동 1291번지,127.12556725198915,36.80155543347141,지번 주소,쌍용3동,
충청남도 천안시 서북구 쌍용동 148번지,gimi9,ok,충청남도 천안시 서북구 쌍용동 148번지,127.1121592760384,36.79508500104173,지번 주소,쌍용2동,
충청남도 천안시 서북구 쌍용동 1523번지,gimi9,ok,충청남도 천안시 서북구 쌍용동 1523번지,127.11874874699652,36.7976214016293,지번 주소,쌍용2동,
충청남도 천안시 서북구 쌍용동 1551번지,gimi9,ok,충청남도 천안시 서북구 쌍용동 1551번지,127.11432490893505,36.7968589205686,지번 주소,쌍용2동,
충청남도 천안시 서북구 쌍용동 1563번지,gimi9,ok,충청남도 천안시 서북구 쌍용동 1563번지,127.11834632524126,36.7928783871808,도로명 주소,쌍용2동,
충청남도 천안시 서북구 쌍용동 1589번지,gimi9,ok,충청남도 천안시 서북구 쌍용동 1589번지,127.11501141046966,36.7918309507241,도로명 주소,쌍용2동,
충청남도 천안시 서북구 쌍용동 1617번지,gimi9,ok,충청남도 천안시 서북구 쌍용동 1617번지,127.11814784004386,36.7922196779095,도로명 주소,쌍용2동,
충청남도 천안시 서북구 쌍용동 1867번지,gimi9,ok,충청남도 천안시 서북구 쌍용동 1867번지,127.11570852998852,36.78914682726484,도로명 주소,쌍용2동,
충청남도 천안시 서북구 쌍용동 1916번지,gimi9,ok,충청남도 천안시 서북구 쌍용동 1916번지,127.12103527549668,36.80447986282496,지번 주소,쌍용3동,
충청남도 천안시 서북구 쌍용동 1919번지,gimi9,ok,충청남도 천안시 서북구 쌍용동 1919번지,127.11938856388258,36.8065029047814,지번 주소,쌍용3동,
충청남도 천안시 서북구 쌍용동 1924번지,gimi9,ok,충청남도 천안시 서북구 쌍용동 1924번지,127.11844804048332,36.801749159603176,도로명 주소,쌍용3동,
충청남도 천안시 서북구 쌍용동 1926번지,gimi9,ok,충청남도 천안시 서북구 쌍용동 1926번지,127.11960203349182,36.80414174443169,도로명 주소,쌍용3동,
충청남도 천안시 서북구 쌍용동 2012번지 일원,gimi9,ok,충청남도 천안시 서북구 쌍용동 2012번지 일원,127.11889776815802,36.80148016128813,도로명 주소,쌍용3동,
충청남도 천안시 서북구 쌍용동 2046-4번지,gimi9,ok,충청남도 천안시 서북구 쌍용동 2046-4번지,127.12373058013712,36.789740399549046,지번 주소,쌍용2동,
충청남도 천안시 서북구 쌍용동 2095번지,gimi9,ok,충청남도 천안시 서북구 쌍용동 2095번지,127.116875819834,36.7865633753169,지번 주소,쌍용2동,
충청남도 천안시 서북구 쌍용동 2101번지,gimi9,ok,충청남도 천안시 서북구 쌍용동 2101번지,127.12120886134996,36.81020472913733,지번 주소,쌍용3동,
충청남도 천안시 서북구 쌍용동 2102번지,gimi9,ok,충청남도 천안시 서북구 쌍용동 2102번지,127.1182839501047,36.8077073297608,지번 주소,쌍용3동,
충청남도 천안시 서북구 쌍용동 2106,gimi9,ok,충청남도 천안시 서북구 쌍용동 2106,127.1193825850863,36.80771085095223,지번 주소,쌍용3동,
충청남도 천안시 서북구 쌍용동 388-18번지,gimi9,ok,충청남도 천안시 서북구 쌍용동 388-18번지,127.1308208148442,36.795351725715015,도로명 주소,쌍용1동,
충청남도 천안시 서북구 쌍용동 619번지,gimi9,ok,충청남도 천안시 서북구 쌍용동 619번지,127.12407212237176,36.795537924956136,지번 주소,쌍용2동,
충청남도 천안시 서북구 쌍용동 656번지,gimi9,ok,충청남도 천안시 서북구 쌍용동 656번지,127.1221871051939,36.79820931298495,도로명 주소,쌍용2동,
충청남도 천안시 서북구 쌍용동 780,gimi9,ok,충청남도 천안시 서북구 쌍용동 780,127.12557706132914,36.79723743265665,지번 주소,쌍용2동,
충청남도 천안시 서북구 쌍용동 847번지,gimi9,ok,충청남도 천안시 서북구 쌍용동 847번지,127.13164509484672,36.80813709494869,도로명 주소,쌍용1동,
충청남도 천안시 서북구 쌍용동 890번지,gimi9,ok,충청남도 천안시 서북구 쌍용동 890번지,127.13039543927154,36.80689820810993,도로명 주소,쌍용1동,
충청남도 천안시 서북구 쌍용동 992번지,gimi9,ok,충청남도 천안시 서북구 쌍용동 992번지,127.13130321044964,36.80462031381371,도로명 주소,쌍용1동,
충청남도 천안시 서북구 쌍용동 998번지 일원,gimi9,ok,충청남도 천안시 서북구 쌍용동 998번지 일원,127.1318625085705,36.80487445724509,도로명 주소,쌍용1동,
충청남도 천안시 서북구 쌍용동 산84번지,gimi9,ok,충청남도 천안시 서북구 쌍용동 산84번지,127.12975976660942,36.8108626842625,지번 주소,쌍용3동,
"충청남도 천안시 서북구 양지10길 67, 2,3층호 (성정동)",gimi9,ok,"충청남도 천안시 서북구 양지10길 67, 2,3층호 (성정동)",127.1406895287414,36.81351046224561,도로명 주소,성정1동,
충청남도 천안시 서북구 양지21길 25(성정동),gimi9,ok,충청남도 천안시 서북구 양지21길 25(성정동),127.1384733953553,36.81271045531473,도로명 주소,성정1동,
충청남도 천안시 서북구 업성 5길 20,gimi9,ok,충청남도 천안시 서북구 업성 5길 20,127.14104671787976,36.86184796793661,도로명 주소,부성1동,
충청남도 천안시 서북구 업성1길 7(성성동),gimi9,ok,충청남도 천안시 서북구 업성1길 7(성성동),127.1252740810124,36.85249622980413,도로명 주소,부성2동,
충청남도 천안시 서북구 업성3길 65-11,gimi9,ok,충청남도 천안시 서북구 업성3길 65-11,127.13792882828878,36.86165821946557,도로명 주소,부성1동,
충청남도 천안시 서북구 업성5길 20,gimi9,ok,충청남도 천안시 서북구 업성5길 20,127.14104671787976,36.86184796793661,도로명 주소,부성1동,
충청남도 천안시 서북구 업성6길 5 (업성동),gimi9,ok,충청남도 천안시 서북구 업성6길 5 (업성동),127.14235318815196,36.860752126092144,도로명 주소,부성1동,
충청남도 천안시 서북구 오성5길 23,gimi9,ok,충청남도 천안시 서북구 오성5길 23,127.13044546907092,36.831472303369125,도로명 주소,부성2동,
충청남도 천안시 서북구 오성6길 27,gimi9,ok,충청남도 천안시 서북구 오성6길 27,127.13058778414909,36.83219391620869,도로명 주소,부성2동,
"충청남도 천안시 서북구 오성9길 5, 1층(두정동)",gimi9,ok,"충청남도 천안시 서북구 오성9길 5, 1층(두정동)",127.12808035288612,36.83356533759838,도로명 주소,부성2동,
"충청남도 천안시 서북구 오성로 103, 8층 801호 (두정동)",gimi9,ok,"충청남도 천안시 서북구 오성로 103, 8층 801호 (두정동)",127.13901800069324,36.830434912108856,도로명 주소,부성1동,
"충청남도 천안시 서북구 오성로 107, 402,403호 (두정동, 제이파크빌딩)",gimi9,ok,"충청남도 천안시 서북구 오성로 107, 402,403호 (두정동, 제이파크빌딩)",127.13938793253038,36.8304630785685,도로명 주소,부성1동,
"충청남도 천안시 서북구 오성로 107, 8층 (두정동)",gimi9,ok,"충청남도 천안시 서북구 오성로 107, 8층 (두정동)",127.13938793253038,36.8304630785685,도로명 주소,부성1동,
"충청남도 천안시 서북구 오성로 71, 405호 (두정동)",gimi9,ok,"충청남도 천안시 서북구 오성로 71, 405호 (두정동)",127.13523810379476,36.83059465422008,도로명 주소,부성2동,
충청남도 천안시 서북구 와촌4길 16,gimi9,ok,충청남도 천안시 서북구 와촌4길 16,127.14486252400204,36.80573432268345,도로명 주소,성정1동,
충청남도 천안시 서북구 원두정6길 14(두정동),gimi9,ok,충청남도 천안시 서북구 원두정6길 14(두정동),127.13460605157834,36.83144910381037,도로명 주소,부성2동,
